~Version
 VERS              .         3.0                           : CWLS LOG ASCII STANDARD - VERSION 3.0
 WRAP              .         NO                            : ONE LINE PER DEPTH STEP
 DLM               .         SPACE                         : DELIMITING CHARACTER(SPACE TAB OR COMMA)
~Well Information
#_______________________________________________________________________________
#
#PARAMETER_NAME    .UNIT     VALUE                         : DESCRIPTION
#_______________________________________________________________________________
STRT               .m        400                           : First reference value
STOP               .m        4939.996                      : Last reference value
STEP               .m        0.1524                        : Step increment
NULL               .         -9999                         : Missing value
COMP               .                                       : Company
WELL               .         35-4-1                        : Well name
FLD                .                                       : Field
LOC                .                                       : Location
SRVC               .                                       : Service Company
CTRY               .                                       : Country
DATE               .                                       : Service Date
X                  .                                       : X or East-West coordinate
Y                  .                                       : Y or North South coordinate
GDAT               .                                       : Geodetic Datum
HZCS               .                                       : Horizontal Co-ordinate System
API                .                                       : API NUMBER
CNTY               .                                       : COUNTY
COUNTRY            .                                       : COUNTRY
ORIGINALWELLNAME   .         35-4-1-Composite Log NPHI     : 
STAT               .                                       : STATE
WSTA               .         LOC                           : Well status
TVD                .         NO                            : TVD flag
UWI                .                                       : UWI NUMBER
~Parameter Information Block
#_______________________________________________________________________________
#
#PARAMETER_NAME    .UNIT     VALUE                         : DESCRIPTION
#_______________________________________________________________________________
SET                .         Dataset                       : 
E                  .M        -9999.5000                    : E (Stretch Coefficient Of The Cable)
EPD                .M        -9999.5000                    : Elevation Of Perm. Datum
OTHER              .         <DescLogPlotStart>   NEURALOG PLOT DEFINITION: 
OTHER_10           .         STARTTRACK_                   : 
OTHER_11           .         LEFTX_ 0.500000 inch          : 
OTHER_12           .         RIGHTX_ 2.485000 inch         : 
OTHER_13           .         SCALETYPE_ Linear             : 
OTHER_14           .         NUMCHARTDIVISIONS_ 10         : 
OTHER_15           .         CURVE_ CALI  0.000000   24.000000  (0,0,255)      Solid             2     N: 
OTHER_16           .         ENDTRACK_                     : 
OTHER_17           .         STARTTRACK_                   : 
OTHER_18           .         LEFTX_ 2.985000 inch          : 
OTHER_19           .         RIGHTX_ 4.985000 inch         : 
OTHER_2            .         PLOTDEFVERSION_ 3             : 
OTHER_20           .         SCALETYPE_ Linear             : 
OTHER_21           .         NUMCHARTDIVISIONS_ 10         : 
OTHER_22           .         CURVE_ DT    240.000000 40.000000  (0,131,131)    Solid             2     N: 
OTHER_23           .         ENDTRACK_                     : 
OTHER_24           .         <DescLogPlotEnd>              : 
OTHER_3            .         LASFILE_ C_\nds\projects\well 35-4-1\las\35-4-1-Composite Log DT.las: 
OTHER_4            .         DEPTHSCALE_ 2000.000000       : 
OTHER_5            .         RESOLUTION_ 200               : 
OTHER_6            .         DEPTHLABELFREQ_ 100.000000    : 
OTHER_7            .         HEAVYGRIDFREQ_ 50.000000      : 
OTHER_8            .         MEDIUMGRIDFREQ_ 25.000000     : 
OTHER_9            .         LIGHTGRIDFREQ_ 25.000000      : 
PDAT               .                                       : Permanent Datum
RUN                .         ONE                           : Run Number
Status             .         LOC                           : 
TLFamily_CALI      .         Caliper                       : 
TLFamily_DT        .         Compressional Slowness        : 
TLFamily_GR        .         Gamma Ray                     : 
TLFamily_MD        .         Measured Depth                : 
TLFamily_NPHI      .         Neutron Porosity              : 
TLFamily_RHOB      .         Bulk Density                  : 
Total_depth        .M        4940.0000                     : Total Depth
~Curve Information
#_______________________________________________________________________________
#
#LOGNAME           .UNIT     LOG_ID                        : DESCRIPTION
#_______________________________________________________________________________
MD                 .m                                      :  {F}
CALI               .IN                                     : Caliper {F}
DT                 .US/F                                   : Delta-T {F}
GR                 .GAPI                                   : Gamma Ray {F}
NPHI               .                                       : Neutron Porosity {F}
RHOB               .G/C3                                   : Bulk Density {F}
~Ascii
# ...
2786.1268  15.55823921 102.52197358 89.25908011 0.31458853 2.43468993
2786.2792  15.55144222 102.44021802 87.53315157 0.31458853 2.43489721
2786.4316  15.54429451 102.2208338 85.69225315 0.31159601 2.43565186
2786.584   15.53677483 102.28149443 84.37529988 0.31159601 2.43632153
2786.7364  15.5291382 103.00408747 84.04910322000001 0.30261845 2.43652582
2786.8888  15.52174592 103.4998188 84.7808201 0.29064838 2.43633453
2787.0412  15.51497867 103.92046817 86.24638938 0.29064838 2.43613946
2787.1936  15.50889378 104.37880504 87.97801681999999 0.31009975 2.43632823
2787.346   15.50348386 104.83945599 89.66446143 0.31009975 2.43699916
2787.4984  15.49853363 105.23213558 91.22938812 0.33553616 2.43791011
2787.6508  15.49379826 105.01293988 92.66020325 0.32057357 2.43866725
2787.8032  15.48912888 104.75407133 93.77443436 0.32057357 2.43896891
2787.9556  15.48449615 104.5140984 94.17522953 0.30112219 2.43873319
2788.108   15.47991591 104.27412546 93.51374958 0.30112219 2.43810025
2788.2604  15.47537217 104.03415253 91.86407471 0.31963508 2.43728986
2788.4128  15.47081159 103.79417959 89.84103746 0.32980964 2.43646953
2788.5652  15.46623146 103.55420666 88.30649158 0.33998419 2.43572691
2788.7176  15.46171234 103.25     87.82270337999999 0.35199501 2.43511383
2788.87    15.45727316 103.25     88.30240633 0.35199501 2.43464802
2789.0224  15.45280388 103.57477511 89.11279119 0.33254364 2.43430449
2789.1748  15.44804309 103.76225396 89.5684692 0.32356608 2.43396074
2789.3272  15.44276781 103.94973282 89.40095253 0.32356608 2.43346204
2789.4796  15.43704288 104.13721167 88.87747963 0.31458853 2.4327027 
2789.632   15.43122875 104.32469053 88.51203734000001 0.31458853 2.43185575
2789.7844  15.42560486 104.51216938 88.68064268000001 0.31907731 2.43135109
2789.9368  15.41993332 104.69964824 89.43826156999999 0.32206983 2.43163688
2790.0892  15.41354462 104.88712709 90.60271871 0.32206983 2.43288522
2790.2416  15.4059965 105.07460595 91.92992728 0.32206983 2.43479326
2790.394   15.3979726 105.2620848 93.18505539 0.32206983 2.43664635
2790.5464  15.39154217 105.44956366 94.11859088999999 0.32206983 2.43771289
2790.6988  15.3893081 105.75     94.46086291 0.32206983 2.43754066
2790.8512  15.39307074 105.75     94.05533566 0.32206983 2.43609964
2791.0036  15.40288688 104.70199912 92.96927257999999 0.32506234 2.43380836
2791.156   15.41720075 103.9520837 91.56113985 0.32506234 2.43160288
2791.3084  15.43397595 103.20216828 90.28669643000001 0.34301746 2.43099075
2791.4608  15.45150683 102.45225286 89.41912345999999 0.35049875 2.43368495
2791.6132  15.46843278 101.70233744 88.91251744 0.35049875 2.44064288
2791.7656  15.48314723 100.75     88.526403  0.36246883 2.45090945
2791.918   15.49331699 100.75     88.10812439999999 0.36246883 2.46126163
2792.0704  15.49612693 101.47654893 87.77047981 0.37144638 2.46741694
2792.2228  15.48952608 101.89650157 87.83735273000001 0.36396509 2.46632231
2792.3752  15.4733612 102.3164542 88.53513784 0.36396509 2.45808043
2792.5276  15.4502229 102.73640684 89.73318256 0.36246883 2.44604981
2792.68    15.42519414 103.15635947 90.94718861 0.36246883 2.43493719
2792.8324  15.40454089 103.57631211 91.62742950000001 0.35648379 2.42815797
2792.9848  15.39395264 104.25     91.51975046 0.35947631 2.42637636
2793.1372  15.39707531 104.25     90.86047891 0.35947631 2.42799471
2793.2896  15.41466936 104.52912858 90.22530254 0.37743142 2.43079589
2793.442   15.44446989 104.72910602 90.15210458999999 0.37743142 2.43324722
2793.5944  15.48129715 104.92908347 90.77961256 0.38640898 2.4346906 
2793.7468  15.51754289 105.25     91.76800554 0.39837905 2.43470495
2793.8992  15.54465539 105.25     92.53933673 0.39837905 2.43280173
2794.0516  15.55557097 106.75     92.67303502 0.40137157 2.42879818
2794.204   15.54744401 106.75     92.17834222 0.40137157 2.42350586
2794.3564  15.52301123 104.67617586 91.46087844 0.39688279 2.41860069
2794.5088  15.48922036 102.75     91.05493103000001 0.39389027 2.41586659
2794.6612  15.45353322 102.75     91.22912327 0.39389027 2.41631906
2794.8136  15.4200765 103.19116404 91.81851002000001 0.39538653 2.4197732 
2794.966   15.38867627 103.45214363 92.33065566000001 0.39538653 2.42517223
2795.1184  15.35725617 103.7819165 92.29353634 0.40885287 2.43118297
2795.2708  15.32559739 104.05429891 91.58830779 0.41483791 2.43636426
2795.4232  15.2972133 104.38626817 90.56467474 0.41483791 2.43908708
2795.5756  15.2776292 104.64675549 89.81917168 0.4372818  2.43787572
2795.728   15.27069667 104.99076325 89.78548112999999 0.4372818  2.43249394
2795.8804  15.27597521 105.22588054 90.40560503 0.42082294 2.42504586
2796.0328  15.28895394 104.71324277 91.15187345 0.41184539 2.41980403
2796.1852  15.30392185 104.15227214 91.4160297 0.41184539 2.42118712
2796.3376  15.31698953 103.65287955 90.98235556 0.38790524 2.43089675
2796.49    15.32728378 103.1175609 90.22340957 0.38790524 2.44627298
2796.6424  15.3361252 102.58900096 89.84132248 0.40436409 2.4613556 
2796.7948  15.34522579 101.76093108 90.34272858 0.41184539 2.47012726
2796.9472  15.35524324 101.73610776 91.63363547 0.41184539 2.46984181
2797.0996  15.36591462 102.74033078 93.08652462000001 0.42680798 2.46224612
2797.252   15.37666059 103.4248975 93.98578452 0.42680798 2.45200048
2797.4044  15.38718325 104.12481856 94.01016724 0.4223192  2.44368165
2797.5568  15.39756206 105.25     93.38881959 0.43129676 2.43947021
2797.7092  15.40794875 105.25     92.67089272 0.43129676 2.43881152
2797.8616  15.41829988 104.49817981 92.31862291 0.41783042 2.43972441
2798.014   15.42843849 103.9582407 92.45863823000001 0.41783042 2.44046736
2798.1664  15.43828348 103.4183016 92.90747854999999 0.41184539 2.44038465
2798.3188  15.44817599 102.8783625 93.37195267 0.40885287 2.43970596
2798.4712  15.45874277 102.3384234 93.63159963 0.40885287 2.43891389
2798.6236  15.47029546 101.7984843 93.58432611000001 0.39688279 2.43825675
2798.776   15.48226802 101.2585452 93.22184909000001 0.39688279 2.43763011
2798.9284  15.49310962 100.75     92.61378286 0.41034913 2.43676986
2799.0808  15.50089002 101.19437011 91.9184695 0.41783042 2.43555421
2799.2332  15.50431226 101.61432275 91.33818755999999 0.41783042 2.4341544 
2799.3856  15.50345453 102.03427538 91.0891608 0.42082294 2.43292648
2799.538   15.49971214 102.45422802 91.30359133 0.42082294 2.43245621
2799.6904  15.49498821 102.87418065 91.98358132 0.42531172 2.43300839
2799.8428  15.49069278 103.29413329 92.98975378999999 0.42680798 2.43474135
2799.9952  15.48728322 103.71408592 94.08927392 0.42680798 2.43744808
2800.1476  15.4844373 104.25     95.01907648 0.44775561 2.44064327
2800.3     15.48162925 104.25     95.56119390000001 0.44775561 2.44365208
2800.4524  15.47857149 103.38816211 95.60691627999999 0.44721114 2.44563255
2800.6048  15.47588762 102.8882185 95.18179936 0.44691188 2.44554534
2800.7572  15.47286332 102.38827489 94.40409209000001 0.44661263 2.44248708
2800.9096  15.46871324 101.75     93.41017819 0.44625935 2.43664189
2801.062   15.46323136 101.75     92.30030917000001 0.44625935 2.43023044
2801.2144  15.45770523 102.20231687 91.14761953 0.43877805 2.4273218 
2801.3668  15.45512356 102.46478727 90.05952472 0.42601406 2.43201844
2801.5192  15.45791668 102.72725767 89.20869001 0.41494175 2.44563147
2801.6716  15.46317873 102.98972806 88.78877733 0.40386945 2.46481003
2801.824   15.46175757 103.25219846 88.9210874 0.39279714 2.48245154
2801.9764  15.44441543 103.51009164 89.57808503 0.38341646 2.49121802
2802.1288  15.41256199 103.78010397 90.60296995 0.3937656  2.4874893 
2802.2812  15.38437135 104.03583922 91.80470659 0.40274315 2.47314299
2802.4336  15.38760885 104.30026094 93.02814428000001 0.4117207  2.45415352
2802.586   15.44034482 104.57119021 94.16081134 0.42069825 2.43712661
2802.7384  15.53266433 104.81071217 95.08847584999999 0.42967579 2.4263225 
2802.8908  15.62519363 105.271482 95.67047382 0.44326683 2.42272711
2803.0432  15.669208  105.21954185 95.7767997 0.44326683 2.42498215
2803.1956  15.63614414 104.77968475 95.35740647 0.42392151 2.4309109 
