~Version
 VERS              .         3.0                           : CWLS LOG ASCII STANDARD - VERSION 3.0
 WRAP              .         NO                            : ONE LINE PER DEPTH STEP
 DLM               .         SPACE                         : DELIMITING CHARACTER(SPACE TAB OR COMMA)
~Well Information
#_______________________________________________________________________________
#
#PARAMETER_NAME    .UNIT     VALUE                         : DESCRIPTION
#_______________________________________________________________________________
STRT               .m        400                           : First reference value
STOP               .m        4939.996                      : Last reference value
STEP               .m        0.1524                        : Step increment
NULL               .         -9999                         : Missing value
COMP               .                                       : Company
WELL               .         35-4-1                        : Well name
FLD                .                                       : Field
LOC                .                                       : Location
SRVC               .                                       : Service Company
CTRY               .                                       : Country
DATE               .                                       : Service Date
X                  .                                       : X or East-West coordinate
Y                  .                                       : Y or North South coordinate
GDAT               .                                       : Geodetic Datum
HZCS               .                                       : Horizontal Co-ordinate System
API                .                                       : API NUMBER
CNTY               .                                       : COUNTY
COUNTRY            .                                       : COUNTRY
ORIGINALWELLNAME   .         35-4-1-Composite Log NPHI     : 
STAT               .                                       : STATE
WSTA               .         LOC                           : Well status
TVD                .         NO                            : TVD flag
UWI                .                                       : UWI NUMBER
~Parameter Information Block
#_______________________________________________________________________________
#
#PARAMETER_NAME    .UNIT     VALUE                         : DESCRIPTION
#_______________________________________________________________________________
SET                .         Dataset                       : 
E                  .M        -9999.5000                    : E (Stretch Coefficient Of The Cable)
EPD                .M        -9999.5000                    : Elevation Of Perm. Datum
OTHER              .         <DescLogPlotStart>   NEURALOG PLOT DEFINITION: 
OTHER_10           .         STARTTRACK_                   : 
OTHER_11           .         LEFTX_ 0.500000 inch          : 
OTHER_12           .         RIGHTX_ 2.485000 inch         : 
OTHER_13           .         SCALETYPE_ Linear             : 
OTHER_14           .         NUMCHARTDIVISIONS_ 10         : 
OTHER_15           .         CURVE_ CALI  0.000000   24.000000  (0,0,255)      Solid             2     N: 
OTHER_16           .         ENDTRACK_                     : 
OTHER_17           .         STARTTRACK_                   : 
OTHER_18           .         LEFTX_ 2.985000 inch          : 
OTHER_19           .         RIGHTX_ 4.985000 inch         : 
OTHER_2            .         PLOTDEFVERSION_ 3             : 
OTHER_20           .         SCALETYPE_ Linear             : 
OTHER_21           .         NUMCHARTDIVISIONS_ 10         : 
OTHER_22           .         CURVE_ DT    240.000000 40.000000  (0,131,131)    Solid             2     N: 
OTHER_23           .         ENDTRACK_                     : 
OTHER_24           .         <DescLogPlotEnd>              : 
OTHER_3            .         LASFILE_ C_\nds\projects\well 35-4-1\las\35-4-1-Composite Log DT.las: 
OTHER_4            .         DEPTHSCALE_ 2000.000000       : 
OTHER_5            .         RESOLUTION_ 200               : 
OTHER_6            .         DEPTHLABELFREQ_ 100.000000    : 
OTHER_7            .         HEAVYGRIDFREQ_ 50.000000      : 
OTHER_8            .         MEDIUMGRIDFREQ_ 25.000000     : 
OTHER_9            .         LIGHTGRIDFREQ_ 25.000000      : 
PDAT               .                                       : Permanent Datum
RUN                .         ONE                           : Run Number
Status             .         LOC                           : 
TLFamily_CALI      .         Caliper                       : 
TLFamily_DT        .         Compressional Slowness        : 
TLFamily_GR        .         Gamma Ray                     : 
TLFamily_MD        .         Measured Depth                : 
TLFamily_NPHI      .         Neutron Porosity              : 
TLFamily_RHOB      .         Bulk Density                  : 
Total_depth        .M        4940.0000                     : Total Depth
~Curve Information
#_______________________________________________________________________________
#
#LOGNAME           .UNIT     LOG_ID                        : DESCRIPTION
#_______________________________________________________________________________
MD                 .m                                      :  {F}
CALI               .IN                                     : Caliper {F}
DT                 .US/F                                   : Delta-T {F}
GR                 .GAPI                                   : Gamma Ray {F}
NPHI               .                                       : Neutron Porosity {F}
RHOB               .G/C3                                   : Bulk Density {F}
~Ascii
# ...
4446.22    8.951903489999999 76.67616211000001 55.22993245 0.18291771 2.57412476
4446.3724  8.94909719 76.01623655 54.50703877 0.17094763 2.58104186
4446.5248  8.94624224 75.25      52.61805406 0.16047382 2.58120248
4446.6772  8.94335693 71.75      48.12515081 0.16047382 2.57334827
4446.8296  8.940517509999999 71.75      45.51635521 0.14850374 2.55944028
4446.982   8.93783318 71.57421232999999 42.81018244 0.14850374 2.54453148
4447.1344  8.935324870000001 71.42422925 35.50762664 0.12575542 2.53522969
4447.2868  8.93281006 71.25      29.10246138 0.11318685 2.53640147
4447.4392  8.92996286 70.62131542 29.9988634 0.10061828 2.54833733
4447.5916  8.926583450000001 69.87139999999999 34.09238263 0.08566085 2.56579605
4447.744   8.922927720000001 68.75      35.90575193 0.08566085 2.58027622
4447.8964  8.91983501 68.75      37.34099138 0.13653367 2.58423289
4448.0488  8.91842465 69.95356934 40.57216099 0.1341388  2.57507149
4448.2012  8.91952538 70.75347911999999 43.06476248 0.13204404 2.55669345
4448.3536  8.92319256 71.5533889 43.49323818 0.12994928 2.53729415
4448.506   8.92865179 72.75      44.09847189 0.12785451 2.5248395 
4448.6584  8.93472568 72.75      45.43511153 0.12605985 2.52278484
4448.8108  8.940568860000001 74.25      46.10295876 0.13683671 2.52833049
4448.9632  8.945756749999999 73.74772899 45.27464276 0.14626314 2.53453495
4449.1156  8.95052108 73.14779665 42.0038819 0.1574813  2.53476143
4449.268   8.955313629999999 72.25      37.51203061 0.1574813  2.52684411
4449.4204  8.96048519 72.25      34.59177713 0.14773209 2.51417706
4449.5728  8.96611375 72.97160028 34.96624511 0.14234556 2.50351868
4449.7252  8.971834210000001 73.45154615 37.84717968 0.13695903 2.50117573
4449.8776  8.97671703 73.93149201999999 41.5433923 0.13054863 2.50975873
4450.03    8.979338179999999 74.41143789 45.47656677 0.13054863 2.52722917
4450.1824  8.97868665 74.89138375 49.622684  0.13867295 2.54836943
4450.3348  8.975366299999999 75.37132962 52.63520748 0.14316172 2.56723676
4450.4872  8.97228153 76.25      52.44360631 0.1476505  2.57933979
4450.6396  8.97367304 76.25      49.1365621 0.15299252 2.58283444
4450.792   8.982692549999999 75.54854097 45.55871245 0.15299252 2.57864385
4450.9444  8.99894873 74.94860863 44.12929355 0.14102244 2.56951323
4451.0968  9.0179233  74.25      44.12284857 0.13354115 2.55855323
4451.2492  9.03320939 74.56328502 43.36987033 0.13354115 2.54799893
4451.4016  9.04037439 74.93824273 41.72095054 0.13653367 2.5388025 
4451.554   9.039856650000001 75.31320044 41.12801572 0.13653367 2.53118931
4451.7064  9.036768690000001 75.68815815000001 42.67588476 0.13952618 2.5255255 
4451.8588  9.037596629999999 76.06311586 45.20440977 0.13503741 2.52249946
4452.0112  9.04618454 76.75      46.98038246 0.13503741 2.52271243
4452.1636  9.06154518 76.75      47.50201492 0.13503741 2.52556319
4452.316   9.07894887 76.39960881 47.37385937 0.13503741 2.52943248
4452.4684  9.09288885 76.09964264 47.88966323 0.13653367 2.53301662
4452.6208  9.10032406 75.79967648 50.66760967 0.13503741 2.53675917
4452.7732  9.10156784 75.49971031 55.85972031 0.13503741 2.54298225
4452.9256  9.09936152 75.19974414000001 60.1188917 0.14102244 2.5540404 
4453.078   9.096919379999999 74.89977797 59.03216072 0.14102244 2.56972562
4453.2304  9.09624369 74.59981181000001 53.2488717 0.1425187  2.58623517
4453.3828  9.097519930000001 74.25      47.79109887 0.14850374 2.59757113
4453.5352  9.099257980000001 74.25      51.25301329 0.14850374 2.59900937
4453.6876  9.099642169999999 74.59380419 62.08097804 0.15448878 2.58988474
4453.84    9.097103540000001 74.78128304000001 62.80526096 0.15448878 2.57384403
4453.9924  9.0907833  74.96876189 49.14272824 0.1574813  2.55647125
4454.1448  9.08033548 75.15624074999999 36.39386714 0.16795511 2.5424563 
4454.2972  9.0653053  75.3437196 35.3669561 0.16795511 2.53401226
4454.4496  9.04477683 75.53119846 40.642882  0.15448878 2.53114683
4454.602   9.017397709999999 75.71867731 44.06954527 0.15448878 2.53260406
4454.7544  8.98239072 75.90615617 44.09480934 0.15149626 2.53605819
4454.9068  8.940875780000001 76.09363501999999 42.06041343 0.15598504 2.53759556
4455.0592  8.89675815 76.28111388000001 39.58957544 0.15598504 2.53238458
4455.2116  8.85628256 76.46859273 37.77097126 0.17693267 2.51767145
4455.364   8.826206839999999 76.75      35.64122956 0.17693267 2.49624068
4455.5164  8.811371879999999 76.75      32.22181687 0.19488778 2.47689498
4455.6688  8.812918760000001 74.27694219999999 28.56102676 0.17162425 2.47055126
4455.8212  8.82805424 72.62712827999999 26.5612884 0.15127514 2.48317005
4455.9736  8.85117967 70.97731435999999 27.21310489 0.13092603 2.51073042
4456.126   8.875804779999999 69.32750043999999 28.06733209 0.11057692 2.5402202 
4456.2784  8.896431679999999 67.67768651999999 25.83474982 0.09314214 2.55665424
4456.4308  8.90990013 65.75      25.94727136 0.11110289 2.5518346 
4456.5832  8.916006790000001 65.75      38.15336496 0.1268136  2.52906568
4456.7356  8.917178979999999 69.75      57.24706893 0.14551122 2.50110274
4456.888   8.917431629999999 70.79812862999999 66.55679657 0.14551122 2.48312263
4457.0404  8.920634870000001 71.69802713999999 63.58026211 0.13054863 2.48508774
4457.1928  8.92897398 72.75      60.499447  0.18890274 2.50773504
4457.3452  8.94169166 72.75      61.53833205 0.18890274 2.54283005
4457.4976  8.95568729 76.25      61.39610883 0.18558881 2.5783163 
4457.65    8.96709469 76.16269824 59.5683029 0.18334442 2.60347442
4457.8024  8.97330942 76.0877067 59.39588382 0.18110003 2.61359233
4457.9548  8.973784269999999 76.01271515000001 60.81098916 0.17885565 2.61095343
4458.1072  8.96986907 75.93772361000001 62.25628583 0.17661126 2.60238909
4458.2596  8.96380417 75.86273207000001 63.48868663 0.17394015 2.59430486
4458.412   8.95748201 75.75      63.72525955 0.17394015 2.58859181
4458.5644  8.9522095  75.75      61.6465686 0.17881461 2.58286309
4458.7168  8.948526879999999 75.30102977999999 60.33077645 0.18291771 2.58150261
4458.8692  8.94608154 75.26331638000001 59.41767075 0.18291771 2.57179819
4459.0216  8.943520319999999 74.32983254 55.84405136 0.1621505  2.55547923
4459.174   8.938816279999999 74.70670932 55.67694898 0.14808567 2.54963825
4459.3264  8.93080702 73.73654555 58.24970814 0.13402084 2.57352837
4459.4788  8.92112081 66.7865113 57.45377644 0.11259352 2.62642135
4459.6312  8.91487049 65.74794308 59.80561559 0.11195524 2.6829313 
4459.7836  8.91900953 68.3567637 65.10316614 0.13436052 2.71359609
4459.936   8.938506200000001 68.42118824000001 68.69937614 0.14457893 2.70935266
4460.0884  8.972837760000001 69.9975543 81.32633388000001 0.16326299 2.68619595
4460.2408  9.015350379999999 70.53747515000001 97.24985692 0.17808702 2.66883201
4460.3932  9.0562679  70.90011158999999 95.18228515 0.18502757 2.67108314
4460.5456  9.08744022 75.32317046999999 87.20590368000001 0.21514678 2.68827521
4460.698   9.10602207 79.29620829 82.88354973 0.22213973 2.70513775
4460.8504  9.11473047 79.22629993 84.72799028999999 0.21676084 2.70527266
4461.0028  9.119140979999999 78.43023454999999 88.71392474 0.22239688 2.70778813
4461.1552  9.124105180000001 77.88162014 88.94539883 0.21897872 2.70283931
4461.3076  9.13154477 77.31805045999999 84.565963  0.20797015 2.6942915 
4461.46    9.14051523 76.78490984 78.98675789000001 0.19899924 2.6864027 
4461.6124  9.148834839999999 76.22394054999999 74.6577946 0.18938204 2.6812054 
4461.7648  9.154848530000001 75.67513445 71.1711999 0.17795001 2.67785968
4461.9172  9.158252859999999 75.1287021 67.59415485 0.17574928 2.67368156
4462.0696  9.15978484 74.5701179 64.13088411 0.17543641 2.66624941
4462.222   9.16029125 73.75434829 61.08305479 0.17543641 2.65397694
4462.3744  9.15990891 73.74321166 57.83513648 0.16346633 2.6367798 
4462.5268  9.15785477 74.53613399 53.8248225 0.16047382 2.61536314
4462.6792  9.15325116 75.05011752999999 49.8335064 0.16047382 2.59101292
4462.8316  9.14571142 75.58902169 47.40517506 0.15       2.56573388
4462.984   9.135793400000001 76.09705947 47.2298624 0.15       2.5426983 
