~Version
 VERS              .         3.0                           : CWLS LOG ASCII STANDARD - VERSION 3.0
 WRAP              .         NO                            : ONE LINE PER DEPTH STEP
 DLM               .         SPACE                         : DELIMITING CHARACTER(SPACE TAB OR COMMA)
~Well Information
#_______________________________________________________________________________
#
#PARAMETER_NAME    .UNIT     VALUE                         : DESCRIPTION
#_______________________________________________________________________________
STRT               .m        400                           : First reference value
STOP               .m        4939.996                      : Last reference value
STEP               .m        0.1524                        : Step increment
NULL               .         -9999                         : Missing value
COMP               .                                       : Company
WELL               .         35-4-1                        : Well name
FLD                .                                       : Field
LOC                .                                       : Location
SRVC               .                                       : Service Company
CTRY               .                                       : Country
DATE               .                                       : Service Date
X                  .                                       : X or East-West coordinate
Y                  .                                       : Y or North South coordinate
GDAT               .                                       : Geodetic Datum
HZCS               .                                       : Horizontal Co-ordinate System
API                .                                       : API NUMBER
CNTY               .                                       : COUNTY
COUNTRY            .                                       : COUNTRY
ORIGINALWELLNAME   .         35-4-1-Composite Log NPHI     : 
STAT               .                                       : STATE
WSTA               .         LOC                           : Well status
TVD                .         NO                            : TVD flag
UWI                .                                       : UWI NUMBER
~Parameter Information Block
#_______________________________________________________________________________
#
#PARAMETER_NAME    .UNIT     VALUE                         : DESCRIPTION
#_______________________________________________________________________________
SET                .         Dataset                       : 
E                  .M        -9999.5000                    : E (Stretch Coefficient Of The Cable)
EPD                .M        -9999.5000                    : Elevation Of Perm. Datum
OTHER              .         <DescLogPlotStart>   NEURALOG PLOT DEFINITION: 
OTHER_10           .         STARTTRACK_                   : 
OTHER_11           .         LEFTX_ 0.500000 inch          : 
OTHER_12           .         RIGHTX_ 2.485000 inch         : 
OTHER_13           .         SCALETYPE_ Linear             : 
OTHER_14           .         NUMCHARTDIVISIONS_ 10         : 
OTHER_15           .         CURVE_ CALI  0.000000   24.000000  (0,0,255)      Solid             2     N: 
OTHER_16           .         ENDTRACK_                     : 
OTHER_17           .         STARTTRACK_                   : 
OTHER_18           .         LEFTX_ 2.985000 inch          : 
OTHER_19           .         RIGHTX_ 4.985000 inch         : 
OTHER_2            .         PLOTDEFVERSION_ 3             : 
OTHER_20           .         SCALETYPE_ Linear             : 
OTHER_21           .         NUMCHARTDIVISIONS_ 10         : 
OTHER_22           .         CURVE_ DT    240.000000 40.000000  (0,131,131)    Solid             2     N: 
OTHER_23           .         ENDTRACK_                     : 
OTHER_24           .         <DescLogPlotEnd>              : 
OTHER_3            .         LASFILE_ C_\nds\projects\well 35-4-1\las\35-4-1-Composite Log DT.las: 
OTHER_4            .         DEPTHSCALE_ 2000.000000       : 
OTHER_5            .         RESOLUTION_ 200               : 
OTHER_6            .         DEPTHLABELFREQ_ 100.000000    : 
OTHER_7            .         HEAVYGRIDFREQ_ 50.000000      : 
OTHER_8            .         MEDIUMGRIDFREQ_ 25.000000     : 
OTHER_9            .         LIGHTGRIDFREQ_ 25.000000      : 
PDAT               .                                       : Permanent Datum
RUN                .         ONE                           : Run Number
Status             .         LOC                           : 
TLFamily_CALI      .         Caliper                       : 
TLFamily_DT        .         Compressional Slowness        : 
TLFamily_GR        .         Gamma Ray                     : 
TLFamily_MD        .         Measured Depth                : 
TLFamily_NPHI      .         Neutron Porosity              : 
TLFamily_RHOB      .         Bulk Density                  : 
Total_depth        .M        4940.0000                     : Total Depth
~Curve Information
#_______________________________________________________________________________
#
#LOGNAME           .UNIT     LOG_ID                        : DESCRIPTION
#_______________________________________________________________________________
MD                 .m                                      :  {F}
CALI               .IN                                     : Caliper {F}
DT                 .US/F                                   : Delta-T {F}
GR                 .GAPI                                   : Gamma Ray {F}
NPHI               .                                       : Neutron Porosity {F}
RHOB               .G/C3                                   : Bulk Density {F}
~Ascii
# ...
1592.53    17.24996479 124.23525991 89.83521019 0.44100786 2.09393854
1592.6824  17.2379658 124.75     88.71390696 0.44101273 2.0945211 
1592.8348  17.22235912 124.75     87.16984856000001 0.44700399 2.09495483
1592.9872  17.2081399 124.67296832 85.90323943 0.44843707 2.09555517
1593.1396  17.19947014 124.61297508 85.41922993999999 0.44714742 2.09705526
1593.292   17.19621195 124.55298185 85.77410872 0.4481944  2.10006719
1593.4444  17.19518316 124.49298862 86.64410553 0.44747832 2.10467011
1593.5968  17.1941575 124.43299538 87.58575647000001 0.44772149 2.11030327
1593.7492  17.1948756 124.37300215 88.3193754 0.44808581 2.11594631
1593.9016  17.20244251 124.31300892 88.76557717999999 0.44701851 2.1204976 
1594.054   17.22214102 124.25     88.96521636 0.4488486  2.12317303
1594.2064  17.2544677 125.75     88.93379817 0.44632261 2.12379646
1594.3588  17.29499066 125.75     88.6864984 0.44932956 2.12291235
1594.5112  17.33639937 125.75     88.23640760000001 0.44611769 2.12135249
1594.6636  17.37227556 125.75     87.71543096000001 0.42669039 2.11993923
1594.816   17.39993232 125.75     87.29459967 0.42438419 2.11911631
1594.9684  17.4206815 124.25     87.08964654 0.42560623 2.11891111
1595.1208  17.43877005 124.25     87.10394798999999 0.42531172 2.11909797
1595.2732  17.45869502 120.25     87.29092948 0.42531172 2.11941221
1595.4256  17.4822891 120.25     87.58799326 0.41932668 2.11969827
1595.578   17.50730214 120.25     87.95919858000001 0.41932668 2.11995206
1595.7304  17.52788261 124.25     88.31839332 0.39239401 2.12030879
1595.8828  17.53784616 124.25     88.47245297000001 0.4000293  2.12097051
1596.0352  17.53493148 124.05775912 88.1987704 0.40661283 2.1220983 
1596.1876  17.52295341 123.90777604 87.3961061 0.41319637 2.12369493
1596.34    17.50974934 123.75779295 86.22020719 0.4197799  2.12568214
1596.4924  17.50206303 123.60780987 85.05514047 0.42531172 2.12802144
1596.6448  17.5006086 123.45782678 84.32137639 0.37743142 2.13073758
1596.7972  17.50036252 123.25     84.2638347 0.37743142 2.1338021 
1596.9496  17.49483979 123.25     84.84373110999999 0.39619732 2.13686109
1597.102   17.48127753 120.82877533 85.7974476 0.40876588 2.13917265
1597.2544  17.46310407 118.25     86.7922198 0.41932668 2.13993044
1597.4068  17.44725676 118.25     87.55448932 0.40475035 2.1388103 
1597.5592  17.43879284 120.17071718 87.90973008 0.39218178 2.13631877
1597.7116  17.4375343 121.67054802 87.82012453999999 0.37743142 2.13360194
1597.864   17.43898972 123.17037885 87.35720318 0.37743142 2.13175327
1598.0164  17.4390923 125.75     86.65550817 0.35447608 2.13108066
1598.1688  17.43742304 125.75     85.83645985 0.33553616 2.13099895
1598.3212  17.43809297 125.07804502 84.94931999000001 0.33553616 2.13069932
1598.4736  17.44606311 124.55310423 83.98387966 0.34357864 2.13005266
1598.626   17.46247213 124.02816344 82.96378936000001 0.34896517 2.12996231
1598.7784  17.48258115 123.50322264 82.03601996 0.35349127 2.13177641
1598.9308  17.49831467 122.97828185 81.45905077 0.35765591 2.13610378
1599.0832  17.50350784 122.25     81.43288587000001 0.36124693 2.14198904
1599.2356  17.49793282 122.25     81.98029389 0.36546135 2.14717553
1599.388   17.48739865 122.97560617 82.87716132 0.36546135 2.14933815
1599.5404  17.48021614 123.75     83.77275529000001 0.38076484 2.14749435
1599.6928  17.48185965 123.75     84.37081911 0.38914388 2.14260402
1599.8452  17.49208282 124.75     84.56465692 0.39752293 2.13696559
1599.9976  17.50607187 124.75     84.44473438 0.40735661 2.13293015
1600.15    17.51801504 124.99178414 84.19364527 0.40735661 2.13179385
1600.3024  17.5240358 125.25     83.97360002000001 0.38986695 2.1335128 
1600.4548  17.52287255 125.25     83.86433108999999 0.3802909  2.13716899
1600.6072  17.5147157 123.71613286 83.85892294999999 0.37071485 2.14160791
1600.7596  17.5012298 122.51626819 83.89011413 0.35947631 2.14581051
1600.912   17.48569321 121.25     83.88335664 0.35947631 2.14890803
1601.0644  17.47313513 122.00564076 83.79253409 0.40436409 2.15017826
1601.2168  17.46843428 122.80555054 83.63399434 0.39811721 2.14922009
1601.3692  17.47295136 123.60546032 83.48606473 0.39273068 2.14622818
1601.5216  17.48218078 124.4053701 83.43928461 0.38734415 2.14208117
1601.674   17.48786707 125.25     83.54094598 0.38195762 2.13801165
1601.8264  17.48292652 126.25     83.77358307999999 0.37743142 2.13504157
1601.9788  17.4665396 126.32281862 84.05175362 0.42381546 2.13342645
1602.1312  17.44558927 126.03618387 84.28798204 0.42381546 2.13279356
1602.2836  17.43165284 126.18985364 84.44746297 0.43185782 2.13246598
1602.436   17.43421537 125.88446885 84.56409411999999 0.43724435 2.1321212 
1602.5884  17.45547637 125.97849594 84.69669469999999 0.44177057 2.13194482
1602.7408  17.48901849 125.88239951 84.87803993 0.43066509 2.13230703
1602.8932  17.52276442 125.56832822 85.07962503 0.42108904 2.13330083
1603.0456  17.54464482 126.14552822 85.24764346000001 0.41151299 2.13514484
1603.198   17.54634275 123.19310679 85.31504624999999 0.40193693 2.13820637
1603.3504  17.52879505 122.66460483 85.28788147 0.39389027 2.14318193
1603.5028  17.50065485 120.64541348 85.22887892 0.44625935 2.15082213
1603.6552  17.47399664 116.54593939 85.23284156 0.44625935 2.16086629
1603.8076  17.46021573 113.99488323 85.37498601999999 0.44775561 2.17221607
1603.96    17.46332939 106.89449071 85.65396217 0.44775561 2.18420336
1604.1124  17.48001819 104.47106427 85.92710112 0.43463852 2.19820249
1604.2648  17.4990122 104.5846904 85.93812111 0.42381546 2.21748165
1604.4172  17.51035822 103.98475806 85.44892555 0.42381546 2.24420498
1604.5696  17.50811395 103.38482573 84.45501104 0.40901182 2.27515023
1604.722   17.49815214 102.78489339 83.32765365 0.39907369 2.29979638
1604.8744  17.49710994 101.75     82.73478303 0.36849117 2.3036323 
1605.0268  17.53390381 101.75     83.29042876 0.3649894  2.27588496
1605.1792  17.63418801 134.75     85.19867363 0.38553595 2.2180088 
1605.3316  17.81028349 134.75     88.06650424999999 0.38158016 2.13124923
1605.484   18.05047669 149.4627163 91.07621969 0.39380517 2.05743402
1605.6364  18.32304021 165.25     93.39731716 0.44256251 2.00216585
1605.7888  18.58872402 165.25     94.56101226 0.45189911 1.97829042
1605.9412  18.81336502 167.75     94.54831677999999 0.44475893 1.97839321
1606.0936  18.97863134 167.75     93.67158327 0.44953234 1.97381867
1606.246   19.07803079 164.53523348 92.38373245 0.44716904 1.96519084
1606.3984  19.10330225 162.53545903 91.15775116 0.44734056 1.96589847
1606.5508  19.04004111 160.53568458 90.3989115 0.44875607 1.95867474
1606.7032  18.87792942 157.75     90.33434403 0.44676138 1.94319682
1606.8556  18.62132352 157.75     90.79006751 0.44790079 1.9507939 
1607.008   18.30716515 156.54488546 91.10606309000001 0.44775561 1.95489015
1607.1604  18.00562808 155.25     90.33804499 0.44775561 1.92224273
1607.3128  17.80556078 155.25     87.77179922000001 0.44775561 1.96708741
1607.4652  17.78252632 156.75     83.49010548 0.44775561 2.20125   
1607.6176  17.9661429 156.75     78.57243726999999 0.44775561 2.34875   
1607.77    18.31421888 156.75     74.719891  0.44775561 2.34875   
1607.9224  18.72424599 156.75     73.51178858 0.3415212  1.94875   
1608.0748  19.06731097 156.75     75.52675447999999 0.44775561 1.94875   
1608.2272  19.24002654 149.75     79.98095453000001 0.44775561 1.95375   
1608.3796  19.20186273 149.75     85.0616668 0.44775561 1.99625   
1608.532   18.98160627 149.26829251 88.79798044 0.44775561 1.99625   
1608.6844  18.65372456 148.96832634 90.03148127999999 0.44775561 1.99875   
1608.8368  18.30100551 148.66836018 88.8963384 0.44775561 1.99875   
1608.9892  17.98964987 148.36839401 86.57255777 0.44775561 2.01625   
1609.1416  17.76214753 148.06842784 84.49089223 0.44775561 2.17375   
1609.294   17.65347677 147.75     83.54596975 0.44583568 2.17375   
1609.4464  17.70072788 146.75     83.78007932 0.42747401 1.99875   
1609.5988  17.93861968 146.75     84.66340801 0.4454545  1.99875   
1609.7512  18.36862519 153.75     85.65510076 0.44999721 1.98875   
