~Version
 VERS              .         3.0                           : CWLS LOG ASCII STANDARD - VERSION 3.0
 WRAP              .         NO                            : ONE LINE PER DEPTH STEP
 DLM               .         SPACE                         : DELIMITING CHARACTER(SPACE TAB OR COMMA)
~Well Information
#_______________________________________________________________________________
#
#PARAMETER_NAME    .UNIT     VALUE                         : DESCRIPTION
#_______________________________________________________________________________
STRT               .m        400                           : First reference value
STOP               .m        4939.996                      : Last reference value
STEP               .m        0.1524                        : Step increment
NULL               .         -9999                         : Missing value
COMP               .                                       : Company
WELL               .         35-4-1                        : Well name
FLD                .                                       : Field
LOC                .                                       : Location
SRVC               .                                       : Service Company
CTRY               .                                       : Country
DATE               .                                       : Service Date
X                  .                                       : X or East-West coordinate
Y                  .                                       : Y or North South coordinate
GDAT               .                                       : Geodetic Datum
HZCS               .                                       : Horizontal Co-ordinate System
API                .                                       : API NUMBER
CNTY               .                                       : COUNTY
COUNTRY            .                                       : COUNTRY
ORIGINALWELLNAME   .         35-4-1-Composite Log NPHI     : 
STAT               .                                       : STATE
WSTA               .         LOC                           : Well status
TVD                .         NO                            : TVD flag
UWI                .                                       : UWI NUMBER
~Parameter Information Block
#_______________________________________________________________________________
#
#PARAMETER_NAME    .UNIT     VALUE                         : DESCRIPTION
#_______________________________________________________________________________
SET                .         Dataset                       : 
E                  .M        -9999.5000                    : E (Stretch Coefficient Of The Cable)
EPD                .M        -9999.5000                    : Elevation Of Perm. Datum
OTHER              .         <DescLogPlotStart>   NEURALOG PLOT DEFINITION: 
OTHER_10           .         STARTTRACK_                   : 
OTHER_11           .         LEFTX_ 0.500000 inch          : 
OTHER_12           .         RIGHTX_ 2.485000 inch         : 
OTHER_13           .         SCALETYPE_ Linear             : 
OTHER_14           .         NUMCHARTDIVISIONS_ 10         : 
OTHER_15           .         CURVE_ CALI  0.000000   24.000000  (0,0,255)      Solid             2     N: 
OTHER_16           .         ENDTRACK_                     : 
OTHER_17           .         STARTTRACK_                   : 
OTHER_18           .         LEFTX_ 2.985000 inch          : 
OTHER_19           .         RIGHTX_ 4.985000 inch         : 
OTHER_2            .         PLOTDEFVERSION_ 3             : 
OTHER_20           .         SCALETYPE_ Linear             : 
OTHER_21           .         NUMCHARTDIVISIONS_ 10         : 
OTHER_22           .         CURVE_ DT    240.000000 40.000000  (0,131,131)    Solid             2     N: 
OTHER_23           .         ENDTRACK_                     : 
OTHER_24           .         <DescLogPlotEnd>              : 
OTHER_3            .         LASFILE_ C_\nds\projects\well 35-4-1\las\35-4-1-Composite Log DT.las: 
OTHER_4            .         DEPTHSCALE_ 2000.000000       : 
OTHER_5            .         RESOLUTION_ 200               : 
OTHER_6            .         DEPTHLABELFREQ_ 100.000000    : 
OTHER_7            .         HEAVYGRIDFREQ_ 50.000000      : 
OTHER_8            .         MEDIUMGRIDFREQ_ 25.000000     : 
OTHER_9            .         LIGHTGRIDFREQ_ 25.000000      : 
PDAT               .                                       : Permanent Datum
RUN                .         ONE                           : Run Number
Status             .         LOC                           : 
TLFamily_CALI      .         Caliper                       : 
TLFamily_DT        .         Compressional Slowness        : 
TLFamily_GR        .         Gamma Ray                     : 
TLFamily_MD        .         Measured Depth                : 
TLFamily_NPHI      .         Neutron Porosity              : 
TLFamily_RHOB      .         Bulk Density                  : 
Total_depth        .M        4940.0000                     : Total Depth
~Curve Information
#_______________________________________________________________________________
#
#LOGNAME           .UNIT     LOG_ID                        : DESCRIPTION
#_______________________________________________________________________________
MD                 .m                                      :  {F}
CALI               .IN                                     : Caliper {F}
DT                 .US/F                                   : Delta-T {F}
GR                 .GAPI                                   : Gamma Ray {F}
NPHI               .                                       : Neutron Porosity {F}
RHOB               .G/C3                                   : Bulk Density {F}
~Ascii
# ...
4915.1548  8.66365538 80.23365738 67.84301503 0.26221945 2.53016319
4915.3072  8.634824480000001 82.70727769 67.44939626 0.26221945 2.5257474 
4915.4596  8.58638773 84.71687396999999 66.8653618 0.27718204 2.52084665
4915.612   8.55181799 87.22995131 66.91059930999999 0.2787005  2.51894019
4915.7644  8.56051667 89.18980949 67.42232494 0.28794364 2.52636477
4915.9168  8.61831462 92.88684485 67.81859621 0.30956666 2.5458981 
4916.0692  8.705460710000001 92.58666092 68.00700993 0.30787    2.57406714
4916.2216  8.79146443 85.03184744000001 68.28715961 0.29259213 2.60495441
4916.374   8.854456040000001 79.58217641 68.52372547 0.29192607 2.6339898 
4916.5264  8.88883813 75.28635187 68.69088441 0.28613595 2.65870453
4916.6788  8.89784901 71.76486727 69.09165504000001 0.2729464  2.68080748
4916.8312  8.88210338 71.71057771 69.89109902 0.27223695 2.70759437
4916.9836  8.83715306 70.93327266 70.94982182 0.26593196 2.74330656
4917.136   8.76436717 70.25559647999999 71.76996511 0.26431275 2.7745382 
4917.2884  8.681872759999999 69.65566414 71.76366419999999 0.28429171 2.77295622
4917.4408  8.62199923 69.05573181 70.71755254999999 0.28784733 2.72340328
4917.5932  8.61345124 68.45579947 69.10375354999999 0.29058587 2.64746086
4917.7456  8.66162039 67.75      67.93902923 0.31601071 2.58932546
4917.898   8.74356165 67.75      68.26376897 0.31758105 2.57639658
4918.0504  8.82229824 67.88674969 70.5175277 0.31309227 2.59919898
4918.2028  8.869963930000001 67.96174123 74.29814322999999 0.31309227 2.62941298
4918.3552  8.88076169 68.03673277999999 78.597072  0.31309227 2.64859128
4918.5076  8.8687453  68.11172431999999 82.3474794 0.30710723 2.65618439
4918.66    8.853249679999999 68.18671586000001 84.90856396 0.30710723 2.65777999
4918.8124  8.846311419999999 68.25      86.26358586000001 0.29962594 2.65504788
4918.9648  8.84909566 74.31892599 86.88255194 0.31009975 2.64732135
4919.1172  8.856446050000001 79.56833392 87.39189475000001 0.31009975 2.63739923
4919.2696  8.862384710000001 85.75      88.19713702999999 0.3265586  2.63233066
4919.422   8.86283386 85.75      89.19094255 0.3265586  2.63793405
4919.5744  8.856717550000001 87.93664176 89.75236065 0.31458853 2.65237816
4919.7268  8.84749012 89.75      89.06782296 0.30710723 2.66595142
4919.8792  8.84279909 89.75      86.65904851000001 0.30710723 2.66865612
4920.0316  8.85118523 88.26147019 82.79913394 0.30411471 2.65877282
4920.184   8.87558816 87.26158297000001 78.50515751 0.30411471 2.64469599
4920.3364  8.908239200000001 86.26169573999999 75.01581059999999 0.30411471 2.63809468
4920.4888  8.93296863 84.75      73.18746886 0.30561097 2.6446492 
4920.6412  8.93462873 84.75      73.13289871000001 0.30561097 2.65864269
4920.7936  8.908407950000001 80.25      74.30503533 0.31159601 2.6660998 
4920.946   8.86382699 80.25      75.93249886 0.31159601 2.65647325
4921.0984  8.81761214 79.88578526000001 77.45071014 0.31458853 2.63335484
4921.2508  8.783284159999999 79.68580781 78.68056399 0.32057357 2.61189786
4921.4032  8.764950900000001 79.48583037 79.74065768 0.32057357 2.60379373
4921.5556  8.759082149999999 79.25      80.78574573 0.31608479 2.60278987
4921.708   8.76041861 79.25      81.79915833 0.31608479 2.60011195
4921.8604  8.765168940000001 81.32538122 82.54664076 0.31458853 2.59833329
4922.0128  8.76878786 82.46525265 82.7156995 0.32057357 2.59548135
4922.1652  8.76230419 83.60512409 82.17278681000001 0.32057357 2.59111624
4922.3176  8.73333182 84.74499552 81.17361529999999 0.31458853 2.58509926
4922.47    8.673234280000001 85.88486696 80.36978680999999 0.31458853 2.57650663
4922.6224  8.58530176 87.0247384 80.50337893 0.29812968 2.56415679
4922.7748  8.48588101 88.75      81.99698897 0.31159601 2.54836134
4922.9272  8.39688821 88.75      84.65214141 0.31159601 2.53194157
4923.0796  8.335414869999999 88.60137257 87.70247292000001 0.32206983 2.51930029
4923.232   8.30593395 88.50138385 90.18385542 0.32206983 2.51388348
4923.3844  8.30112943 88.40139512 91.41086899 0.33703242 2.51608467
4923.5368  8.30871958 88.25      91.24512375 0.32356608 2.52312222
4923.6892  8.317867919999999 88.25      90.04919427 0.32356608 2.53077664
4923.8416  8.322042440000001 85.57572123 88.40652813 0.30561097 2.53576663
4923.994   8.31879466 83.77592423 86.759573  0.30561097 2.53712591
4924.1464  8.30953017 82.25      85.24750672 0.29812968 2.53588281
4924.2988  8.300046829999999 79.25      83.71020971999999 0.28765586 2.53378814
4924.4512  8.29974575 79.25      81.91448011999999 0.28765586 2.53206606
4924.6036  8.31749619 80.58663189000001 79.79137939 0.28316708 2.53099913
4924.756   8.355598690000001 81.48653040000001 77.56579172000001 0.28316708 2.53024538
4924.9084  8.406408949999999 82.25      75.66582821 0.28915212 2.52940215
4925.0608  8.455405750000001 82.01970502 74.47408135000001 0.29214464 2.52836537
4925.2132  8.48848366 81.81972758000001 74.10110836 0.29214464 2.52739297
4925.3656  8.499640729999999 81.61975013 74.40271659 0.29513716 2.52682532
4925.518   8.49364488 81.41977269 75.2082058 0.29513716 2.52690821
4925.6704  8.481162019999999 81.25      76.53853832 0.31159601 2.52766852
4925.8228  8.47046156 81.25      77.98170756 0.29064838 2.52904438
4925.9752  8.46433285 81.25      80.05044359 0.29064838 2.53085758
4926.1276  8.460583700000001 81.25      84.19299879 0.26670823 2.53276495
4926.28    8.45679644 81.25      88.64797806 0.26670823 2.53425587
4926.4324  8.45371184 81.25      90.71361580999999 0.27269327 2.53486271
4926.5848  8.453926750000001 81.25      89.37501482 0.27269327 2.53452433
4926.7372  8.45620211 81.25      86.06123559 0.27269327 2.53375294
4926.8896  8.453612079999999 81.25      82.83800081 0.27269327 2.53349696
4927.042   8.437893000000001 81.25      80.40564639999999 0.27269327 2.53457989
4927.1944  8.40953764 81.25      78.0656671 0.27269327 2.53715699
4927.3468  8.383230279999999 82.37103868 75.15991382 0.27269327 2.54071303
4927.4992  8.382150559999999 83.34592872 72.06297077000001 0.27269327 2.5445785 
4927.6516  8.42109116 84.32081877 69.74657704000001 0.27269327 2.54858607
4927.804   8.49043758 85.29570880999999 68.63337213 0.27269327 2.55340997
4927.9564  8.555957019999999 86.27059885 68.07228386 0.27269327 2.56037588
4928.1088  8.57931134 87.75      67.07486818 0.27269327 2.57087798
4928.2612  8.54600975 87.75      65.16722163 0.27269327 2.58550758
4928.4136  8.4802368  87.75      65.4207096 0.27269327 2.60343163
4928.566   8.4326513  87.75      67.46477865999999 0.27269327 2.62217215
4928.7184  8.44799795 87.75      71.29243047 0.27269327 2.63825167
4928.8708  8.53562745 87.75      76.13396399 0.27269327 2.64845409
4929.0232  8.66418653 87.75      80.76281716 0.27269327 2.65118459
4929.1756  8.78325839 87.75      84.06642271 0.27269327 2.64703314
4929.328   8.854647290000001 87.75      85.54519746 0.27269327 2.63812328
4929.4804  8.87068208 85.75      85.40624038 0.27269327 2.62677931
4929.6328  8.8497278  86.69717559 84.30255997 0.27269327 2.6146804 
4929.7852  8.81683656 87.52208256 82.98678586 0.27269327 2.6031059 
4929.9376  8.786325229999999 88.34698951999999 82.07534376 0.27269327 2.59372937
4930.09    8.757721   89.17189648 81.95722094 0.27269327 2.58885288
4930.2424  8.723464699999999 89.99680343999999 82.75031647 0.27269327 2.5904092 
4930.3948  8.664553099999999 91.25      84.24206622 0.27269327 2.59839759
4930.5472  8.60281208 91.25      85.87056496 0.27269327 2.61017861
4930.6996  8.58583168 91.25      86.89203145 0.27269327 2.62159389
4930.852   8.582319979999999 91.25      86.72081059 0.27269327 2.62914973
4931.0044  8.49999081 91.25      85.26856669999999 0.27269327 2.63177197
4931.1568  8.3647601  91.25      83.03756224 0.27269327 2.63087404
4931.3092  8.38706781 91.25      80.92662205000001 0.27269327 2.62890554
4931.4616  8.616141710000001 91.25      79.75563656999999 0.27269327 2.62772387
4931.614   8.651151260000001 91.25      79.88950551000001 0.27269327 2.62776548
4931.7664  8.21504899 91.25      81.13087878 0.27269327 2.6284242 
4931.9188  7.92111124 91.25      82.89009614 0.27269327 2.62896317
