~Version
 VERS              .         3.0                           : CWLS LOG ASCII STANDARD - VERSION 3.0
 WRAP              .         NO                            : ONE LINE PER DEPTH STEP
 DLM               .         SPACE                         : DELIMITING CHARACTER(SPACE TAB OR COMMA)
~Well Information
#_______________________________________________________________________________
#
#PARAMETER_NAME    .UNIT     VALUE                         : DESCRIPTION
#_______________________________________________________________________________
STRT               .m        400                           : First reference value
STOP               .m        4939.996                      : Last reference value
STEP               .m        0.1524                        : Step increment
NULL               .         -9999                         : Missing value
COMP               .                                       : Company
WELL               .         35-4-1                        : Well name
FLD                .                                       : Field
LOC                .                                       : Location
SRVC               .                                       : Service Company
CTRY               .                                       : Country
DATE               .                                       : Service Date
X                  .                                       : X or East-West coordinate
Y                  .                                       : Y or North South coordinate
GDAT               .                                       : Geodetic Datum
HZCS               .                                       : Horizontal Co-ordinate System
API                .                                       : API NUMBER
CNTY               .                                       : COUNTY
COUNTRY            .                                       : COUNTRY
ORIGINALWELLNAME   .         35-4-1-Composite Log NPHI     : 
STAT               .                                       : STATE
WSTA               .         LOC                           : Well status
TVD                .         NO                            : TVD flag
UWI                .                                       : UWI NUMBER
~Parameter Information Block
#_______________________________________________________________________________
#
#PARAMETER_NAME    .UNIT     VALUE                         : DESCRIPTION
#_______________________________________________________________________________
SET                .         Dataset                       : 
E                  .M        -9999.5000                    : E (Stretch Coefficient Of The Cable)
EPD                .M        -9999.5000                    : Elevation Of Perm. Datum
OTHER              .         <DescLogPlotStart>   NEURALOG PLOT DEFINITION: 
OTHER_10           .         STARTTRACK_                   : 
OTHER_11           .         LEFTX_ 0.500000 inch          : 
OTHER_12           .         RIGHTX_ 2.485000 inch         : 
OTHER_13           .         SCALETYPE_ Linear             : 
OTHER_14           .         NUMCHARTDIVISIONS_ 10         : 
OTHER_15           .         CURVE_ CALI  0.000000   24.000000  (0,0,255)      Solid             2     N: 
OTHER_16           .         ENDTRACK_                     : 
OTHER_17           .         STARTTRACK_                   : 
OTHER_18           .         LEFTX_ 2.985000 inch          : 
OTHER_19           .         RIGHTX_ 4.985000 inch         : 
OTHER_2            .         PLOTDEFVERSION_ 3             : 
OTHER_20           .         SCALETYPE_ Linear             : 
OTHER_21           .         NUMCHARTDIVISIONS_ 10         : 
OTHER_22           .         CURVE_ DT    240.000000 40.000000  (0,131,131)    Solid             2     N: 
OTHER_23           .         ENDTRACK_                     : 
OTHER_24           .         <DescLogPlotEnd>              : 
OTHER_3            .         LASFILE_ C_\nds\projects\well 35-4-1\las\35-4-1-Composite Log DT.las: 
OTHER_4            .         DEPTHSCALE_ 2000.000000       : 
OTHER_5            .         RESOLUTION_ 200               : 
OTHER_6            .         DEPTHLABELFREQ_ 100.000000    : 
OTHER_7            .         HEAVYGRIDFREQ_ 50.000000      : 
OTHER_8            .         MEDIUMGRIDFREQ_ 25.000000     : 
OTHER_9            .         LIGHTGRIDFREQ_ 25.000000      : 
PDAT               .                                       : Permanent Datum
RUN                .         ONE                           : Run Number
Status             .         LOC                           : 
TLFamily_CALI      .         Caliper                       : 
TLFamily_DT        .         Compressional Slowness        : 
TLFamily_GR        .         Gamma Ray                     : 
TLFamily_MD        .         Measured Depth                : 
TLFamily_NPHI      .         Neutron Porosity              : 
TLFamily_RHOB      .         Bulk Density                  : 
Total_depth        .M        4940.0000                     : Total Depth
~Curve Information
#_______________________________________________________________________________
#
#LOGNAME           .UNIT     LOG_ID                        : DESCRIPTION
#_______________________________________________________________________________
MD                 .m                                      :  {F}
CALI               .IN                                     : Caliper {F}
DT                 .US/F                                   : Delta-T {F}
GR                 .GAPI                                   : Gamma Ray {F}
NPHI               .                                       : Neutron Porosity {F}
RHOB               .G/C3                                   : Bulk Density {F}
~Ascii
# ...
2077.0096  18.72602371 117.25     118.51498306 0.44625935 1.97336155
2077.162   18.60577876 118.19418062 118.606505 0.44625935 1.96585326
2077.3144  18.54156782 118.94409604 117.45608392 0.44625935 1.96746419
2077.4668  18.55727727 119.69401145 115.50843602 0.44625935 1.97093059
2077.6192  18.64625591 120.44392687 113.40039583 0.44625935 1.96875417
2077.7716  18.76922802 121.19384229 111.58016997 0.44625935 1.96985484
2077.924   18.87173487 122.25     110.10499725 0.44625935 1.96666884
2078.0764  18.89872071 122.25     108.71594202 0.44625935 1.9725901 
2078.2288  18.8138434 118.27137151 107.11966035 0.44625935 1.96405571
2078.3812  18.61629285 115.77165345 105.32119451 0.44625935 1.97474874
2078.5336  18.34884501 113.27193539 103.70965683 0.43877805 2.05787691
2078.686   18.0952776 109.75     102.8963728 0.43877805 2.17851848
2078.8384  17.96052714 109.75     103.30487744 0.35199501 2.32575104
2078.9908  18.02518701 112.61359753 104.8340206 0.3826357  2.33554346
2079.1432  18.29729615 114.30468043 106.81805995 0.40911947 2.21590718
2079.2956  18.67632902 116.35433267 108.37663274 0.44027431 2.14986315
2079.448   18.98646243 118.58351886 108.84315804 0.44027431 2.07223986
2079.6004  19.06985738 118.92081633 108.09424565 0.44625935 1.97114187
2079.7528  18.89190657 120.72549832 106.47192395 0.44677868 1.96640863
2079.9052  18.57475757 123.39394778 104.46899525 0.44722756 2.0263953 
2080.0576  18.32918711 123.12785721 102.45418358 0.44775561 2.05581338
2080.21    18.31143443 120.49681771 100.55738109 0.44775561 2.09775722
2080.3624  18.51711908 118.14796408 98.71279548 0.44775561 2.14312717
2080.5148  18.78835683 115.90136972 96.7780051 0.44775561 2.14874365
2080.6672  18.93121101 113.74894636 94.63489941 0.44775561 2.18368409
2080.8196  18.845456  111.31741578 92.35377122 0.44775561 2.21194226
2080.972   18.57783575 108.39524313 90.29527688 0.44775561 2.23633853
2081.1244  18.26616808 108.10660594 89.03841559 0.43220259 2.27361258
2081.2768  18.03399251 110.78229302 89.09617335999999 0.41932668 2.27396799
2081.4292  17.92023572 113.25     90.50638374 0.41932668 2.27263553
2081.5816  17.88696253 113.25     92.65456449 0.43877805 2.26972313
2081.734   17.87413905 113.50110485 94.49460016 0.44319099 2.27313986
2081.8864  17.84868687 113.70108229 95.15278911999999 0.4419991  2.26376494
2082.0388  17.81086099 113.90105974 94.45961998 0.40662288 2.27575709
2082.1912  17.78019561 114.25     93.04372064 0.40003461 2.34164961
2082.3436  17.76548347 114.25     91.89563732000001 0.39874232 2.33177196
2082.496   17.76244652 115.75595242 91.76635614999999 0.39616581 2.30709217
2082.6484  17.7608347 116.95581709 92.7303082 0.42812287 2.25503166
2082.8008  17.75251508 118.15568176 94.3104685 0.44863463 2.21089157
2082.9532  17.73587146 119.35554643 95.88630143 0.44644543 2.24786615
2083.1056  17.71408813 120.5554111 97.10680453000001 0.42975001 2.35373594
2083.258   17.69458278 122.25     98.10169328000001 0.42692557 2.41359471
2083.4104  17.68650354 122.25     99.27106070000001 0.43499395 2.38808971
2083.5628  17.6987654 120.82124617 100.97949506 0.43566308 2.35227116
2083.7152  17.73048345 119.92134767 103.24355981 0.44074912 2.34213655
2083.8676  17.76535244 119.04194269 105.6151526 0.44222428 2.32738046
2084.02    17.77850664 117.71282737 107.35104371 0.44436628 2.31172382
2084.1724  17.75928064 117.79337494 107.85573465 0.4450359  2.32707527
2084.3248  17.7329508 119.44801197 107.01437635 0.439997   2.35900341
2084.4772  17.75834938 120.6286313 105.22771949 0.43755198 2.36619275
2084.6296  17.89037547 121.66809916 103.0719483 0.43377545 2.35727359
2084.782   18.12899155 123.24669269 100.84684757 0.43209464 2.37380255
2084.9344  18.39684889 123.26235109 98.4029013 0.42815846 2.38936276
2085.0868  18.57084072 118.92858404 95.42309912 0.42399689 2.32999159
2085.2392  18.55336863 114.30424421 91.94544629000001 0.42321031 2.22768944
2085.3916  18.33414233 114.19362835 88.66730922000001 0.42347791 2.21058668
2085.544   17.99765096 115.35000976 86.63297949 0.42035279 2.30179197
2085.6964  17.67158989 116.04871243 86.56328919000001 0.42216417 2.3850122 
2085.8488  17.45571925 116.99660844 88.26062113 0.44053693 2.38642602
2086.0012  17.37994027 117.69669126 90.59725951 0.44272064 2.34659836
2086.1536  17.41261417 118.58310934 92.12625734 0.42655833 2.32013335
2086.306   17.49981378 119.75     91.91136372 0.41711491 2.31606547
2086.4584  17.60008801 119.75     89.98935837000001 0.40730326 2.32307222
2086.6108  17.69367956 118.79885075 87.2294308 0.39239401 2.33122785
2086.7632  17.77285885 117.75     84.78538696 0.39239401 2.33705492
2086.9156  17.83153676 117.75     83.51202730999999 0.41647582 2.343281  
2087.068   17.86511603 116.75     83.69375551 0.43263541 2.34821114
2087.2204  17.875577  116.75     85.0666671 0.44625935 2.35580772
2087.3728  17.87137952 116.75     87.11931126 0.41783042 2.36380962
2087.5252  17.86358058 116.75     89.27732154 0.41783042 2.37230674
2087.6776  17.8589542 116.75     91.01688181999999 0.44027431 2.37913106
2087.83    17.85816806 116.75     91.94133718 0.44027431 2.37925828
2087.9824  17.85774611 116.75     91.83482904 0.44326683 2.37083925
2088.1348  17.85539178 116.75     90.89072231 0.44476309 2.3578452 
2088.2872  17.85083593 117.30040493 89.72773278 0.44476309 2.34793929
2088.4396  17.84559237 117.90033727 89.11467759 0.42531172 2.34741761
2088.592   17.84095812 118.75     89.47757774 0.42531172 2.35641114
2088.7444  17.83719519 118.75     90.55420460000001 0.42680798 2.36712863
2088.8968  17.8337155 117.79986573 91.52131846 0.44326683 2.36923733
2089.0492  17.83021961 117.19993339 91.591111  0.44326683 2.36044531
2089.2016  17.82652595 116.60000106 90.70308142 0.43428928 2.35027829
2089.354   17.82264285 115.75     89.59987637 0.43428928 2.35684752
2089.5064  17.81879549 115.75     89.2491801 0.39837905 2.36237355
2089.6588  17.81498591 115.27510203 89.99637112000001 0.39987531 2.37016152
2089.8112  17.8111887 114.75     91.23310236 0.39987531 2.37615808
2089.9636  17.8073845 114.75     91.83860910999999 0.41191607 2.37868941
2090.116   17.80356908 113.50067841 91.10500032 0.41999587 2.38035158
2090.2684  17.79974666 112.50079119 89.32962279 0.42680798 2.38627145
2090.4208  17.79591204 111.50090396 87.59528413 0.41034913 2.3999577 
2090.5732  17.79206715 109.75     86.99841311 0.41034913 2.41997963
2090.7256  17.78823176 109.75     87.99171618 0.3894015  2.44035242
2090.878   17.78443692 112.37239119 90.35455351 0.3894015  2.45412216
2091.0304  17.7806925 114.47215436 93.62851695000001 0.38790524 2.45752683
2091.1828  17.77694459 116.75     97.54148041000001 0.44326683 2.4517016 
2091.3352  17.77308543 116.06368546 101.94915723 0.44326683 2.44111396
2091.4876  17.76905265 115.31377004 106.45124991 0.44625935 2.43033491
2091.64    17.76495356 114.25     110.20403551 0.44625935 2.42176144
2091.7924  17.7610727 114.25     112.24274852 0.41483791 2.41528266
2091.9448  17.75806556 115.86292765 112.14291861 0.4127607  2.40971797
2092.0972  17.75564458 116.88281262 110.44199314 0.4109652  2.4041432 
2092.2496  17.7527099 117.90269759 108.42572001 0.40885287 2.39798353
2092.402   17.7470655 118.92258256 107.37473666 0.40885287 2.3906216 
2092.5544  17.73725335 119.94246752 107.81438016 0.39089776 2.38140188
2092.7068  17.72489551 120.96235249 109.30255994 0.40024512 2.3703346 
2092.8592  17.71460944 122.75     110.80736277 0.40832491 2.35880259
2093.0116  17.7098466 122.75     111.4012096 0.41783042 2.34938925
2093.164   17.70769463 121.37822731 110.7622332 0.41783042 2.34466408
2093.3164  17.69774951 120.27835137 109.24897711 0.41334165 2.34609836
2093.4688  17.66936421 119.17847542 107.58860606 0.44775561 2.35309872
2093.6212  17.62641045 117.25     106.43101824 0.44513822 2.3633902 
2093.7736  17.59575437 117.25     106.02248072 0.43501258 2.37400185
2093.926   17.61764315 118.74580264 106.13483508 0.42674725 2.38222113
2094.0784  17.71906569 119.94566731 106.21696211 0.37800255 2.38594023
2094.2308  17.88801744 121.14553198 105.76603066 0.38826425 2.38360693
