~Version
 VERS              .         3.0                           : CWLS LOG ASCII STANDARD - VERSION 3.0
 WRAP              .         NO                            : ONE LINE PER DEPTH STEP
 DLM               .         SPACE                         : DELIMITING CHARACTER(SPACE TAB OR COMMA)
~Well Information
#_______________________________________________________________________________
#
#PARAMETER_NAME    .UNIT     VALUE                         : DESCRIPTION
#_______________________________________________________________________________
STRT               .m        400                           : First reference value
STOP               .m        4939.996                      : Last reference value
STEP               .m        0.1524                        : Step increment
NULL               .         -9999                         : Missing value
COMP               .                                       : Company
WELL               .         35-4-1                        : Well name
FLD                .                                       : Field
LOC                .                                       : Location
SRVC               .                                       : Service Company
CTRY               .                                       : Country
DATE               .                                       : Service Date
X                  .                                       : X or East-West coordinate
Y                  .                                       : Y or North South coordinate
GDAT               .                                       : Geodetic Datum
HZCS               .                                       : Horizontal Co-ordinate System
API                .                                       : API NUMBER
CNTY               .                                       : COUNTY
COUNTRY            .                                       : COUNTRY
ORIGINALWELLNAME   .         35-4-1-Composite Log NPHI     : 
STAT               .                                       : STATE
WSTA               .         LOC                           : Well status
TVD                .         NO                            : TVD flag
UWI                .                                       : UWI NUMBER
~Parameter Information Block
#_______________________________________________________________________________
#
#PARAMETER_NAME    .UNIT     VALUE                         : DESCRIPTION
#_______________________________________________________________________________
SET                .         Dataset                       : 
E                  .M        -9999.5000                    : E (Stretch Coefficient Of The Cable)
EPD                .M        -9999.5000                    : Elevation Of Perm. Datum
OTHER              .         <DescLogPlotStart>   NEURALOG PLOT DEFINITION: 
OTHER_10           .         STARTTRACK_                   : 
OTHER_11           .         LEFTX_ 0.500000 inch          : 
OTHER_12           .         RIGHTX_ 2.485000 inch         : 
OTHER_13           .         SCALETYPE_ Linear             : 
OTHER_14           .         NUMCHARTDIVISIONS_ 10         : 
OTHER_15           .         CURVE_ CALI  0.000000   24.000000  (0,0,255)      Solid             2     N: 
OTHER_16           .         ENDTRACK_                     : 
OTHER_17           .         STARTTRACK_                   : 
OTHER_18           .         LEFTX_ 2.985000 inch          : 
OTHER_19           .         RIGHTX_ 4.985000 inch         : 
OTHER_2            .         PLOTDEFVERSION_ 3             : 
OTHER_20           .         SCALETYPE_ Linear             : 
OTHER_21           .         NUMCHARTDIVISIONS_ 10         : 
OTHER_22           .         CURVE_ DT    240.000000 40.000000  (0,131,131)    Solid             2     N: 
OTHER_23           .         ENDTRACK_                     : 
OTHER_24           .         <DescLogPlotEnd>              : 
OTHER_3            .         LASFILE_ C_\nds\projects\well 35-4-1\las\35-4-1-Composite Log DT.las: 
OTHER_4            .         DEPTHSCALE_ 2000.000000       : 
OTHER_5            .         RESOLUTION_ 200               : 
OTHER_6            .         DEPTHLABELFREQ_ 100.000000    : 
OTHER_7            .         HEAVYGRIDFREQ_ 50.000000      : 
OTHER_8            .         MEDIUMGRIDFREQ_ 25.000000     : 
OTHER_9            .         LIGHTGRIDFREQ_ 25.000000      : 
PDAT               .                                       : Permanent Datum
RUN                .         ONE                           : Run Number
Status             .         LOC                           : 
TLFamily_CALI      .         Caliper                       : 
TLFamily_DT        .         Compressional Slowness        : 
TLFamily_GR        .         Gamma Ray                     : 
TLFamily_MD        .         Measured Depth                : 
TLFamily_NPHI      .         Neutron Porosity              : 
TLFamily_RHOB      .         Bulk Density                  : 
Total_depth        .M        4940.0000                     : Total Depth
~Curve Information
#_______________________________________________________________________________
#
#LOGNAME           .UNIT     LOG_ID                        : DESCRIPTION
#_______________________________________________________________________________
MD                 .m                                      :  {F}
CALI               .IN                                     : Caliper {F}
DT                 .US/F                                   : Delta-T {F}
GR                 .GAPI                                   : Gamma Ray {F}
NPHI               .                                       : Neutron Porosity {F}
RHOB               .G/C3                                   : Bulk Density {F}
~Ascii
# ...
1834.084   19.71732654 139.72262343 99.39640321 0.44775561 1.96234131
1834.2364  19.76732581 141.74655085 103.89757252 0.44775561 1.93674572
1834.3888  19.80405093 143.14882173 107.15484704 0.44775561 1.97678038
1834.5412  19.88968391 143.89435885 107.80347467 0.44775561 2.09710484
1834.6936  20.01855893 144.31307762 106.11925606 0.44775561 2.11218637
1834.846   20.10130443 144.88091888 103.80469753 0.44775561 2.08599205
1834.9984  20.02429638 145.41208838 102.85155738 0.44775561 2.13797098
1835.1508  19.73024237 145.91199289 104.1868527 0.44775561 2.11527402
1835.3032  19.26315728 146.72074238 107.1075654 0.44775561 1.99921533
1835.4556  18.74133341 146.82186483 109.81352485 0.44775561 1.94059833
1835.608   18.28572287 145.14021545 110.57167156 0.44775561 1.95988796
1835.7604  17.96492713 144.31245639 108.77777325 0.44775561 1.95810414
1835.9128  17.79701476 143.31256916 105.29817667 0.44775561 1.90493092
1836.0652  17.77442648 141.75     101.36481359 0.44775561 1.98851692
1836.2176  17.89369567 141.75     99.76826646000001 0.44775561 2.21741193
1836.37    18.13960155 136.25     100.76399198 0.44775561 2.29045596
1836.5224  18.45959794 136.25     103.98711735 0.36546135 2.22199725
1836.6748  18.75950058 136.25     108.22837268 0.39405929 2.22528629
1836.8272  18.93733344 136.25     111.99321561 0.41874754 2.18160062
1836.9796  18.94381943 136.25     114.31585884 0.44775561 2.17574358
1837.132   18.81014207 136.25     115.42982104 0.44775561 2.14402653
1837.2844  18.62885081 136.25     116.42431296 0.40885287 2.12189594
1837.4368  18.49298187 133.25     118.09976926 0.44775561 2.11665402
1837.5892  18.45136075 133.1397143 120.05692855 0.44775561 2.1239035 
1837.7416  18.48928246 133.03972558 121.09007358 0.44775561 2.12663141
1837.894   18.56112607 132.93973686 120.57105703 0.44775561 2.12328213
1838.0464  18.62352799 132.83974814 119.15835957 0.44775561 2.17576905
1838.1988  18.66958783 132.75     117.63702129 0.44775561 2.15742668
1838.3512  18.72619103 121.25     115.17284582 0.44775561 2.23208576
1838.5036  18.83201048 121.25     109.65455161 0.44775561 2.37176126
1838.656   19.01109542 89.75      100.33725965 0.44775561 2.41301433
1838.8084  19.25518025 89.75      89.57160768 0.44775561 2.4963594 
1838.9608  19.52814574 86.8319607 81.29658689999999 0.30112219 2.54691744
1839.1132  19.78902185 85.18214678 78.14650927 0.30112219 2.59200882
1839.2656  20.00702137 83.53233286 80.16462303 0.16795511 2.5889645 
1839.418   20.16747698 81.88251894 85.30514459 0.16795511 2.55618632
1839.5704  20.2647877 80.23270502 90.13287643 0.18379311 2.52940939
1839.7228  20.29338915 78.75      91.01481608 0.19247141 2.50176605
1839.8752  20.24946192 73.79475595 86.64212494 0.2011497  2.4807153 
1840.0276  20.14368586 69.29526344 79.77214015 0.21134663 2.50228443
1840.18    20.00253116 63.75      75.19940783 0.21134663 2.54997905
1840.3324  19.85389132 63.75      75.27154058000001 0.17775923 2.58568969
1840.4848  19.69985839 67.59405348 77.98812271 0.15       2.59228928
1840.6372  19.50577357 69.76880819 79.9174919 0.15       2.57458563
1840.7896  19.22443375 71.94356291 80.03020067 0.17749631 2.55987632
1840.942   18.84064874 74.11831762 79.59189514000001 0.19938184 2.55557335
1841.0944  18.40097075 76.29307233 79.38796128 0.2137667  2.5383818 
1841.2468  18.00362979 78.25      78.69192465 0.23480593 2.53410835
1841.3992  17.74198533 76.35243515000001 76.91255223 0.25080623 2.56282151
1841.5516  17.66365305 74.62762969000001 75.00523238 0.27132178 2.59716988
1841.704   17.75343405 72.90282422999999 74.43965028 0.27161367 2.58939815
1841.8564  17.95243787 71.17801876999999 75.43827689 0.23550949 2.63945175
1842.0088  18.19436456 69.4532133 76.97998978 0.21100793 2.6342602 
1842.1612  18.42524106 66.75      78.19317642999999 0.20438154 2.44164902
1842.3136  18.59480382 66.75      79.18704557 0.20212609 2.33027462
1842.466   18.65511841 83.79771982 80.75337456 0.18941588 2.19562894
1842.6184  18.58315622 95.69637779999999 83.84800469 0.26894302 2.05986411
1842.7708  18.41552379 107.59503577 89.11808584000001 0.40750942 2.02302796
1842.9232  18.25559774 126.25     95.91650403 0.42489351 1.9716624 
1843.0756  18.22245662 126.25     101.89348  0.42162134 2.02613228
1843.228   18.3705086 118.80350837 103.40468473 0.43870315 2.08311494
1843.3804  18.63897858 113.6040948 103.54096827 0.44625935 2.09342546
1843.5328  18.88173943 108.40468123 101.88042194 0.41298289 2.20070591
1843.6852  18.95895454 100.25     99.65308443000001 0.38425474 2.20620635
1843.8376  18.82639216 100.25     97.88138566000001 0.35049875 2.0171867 
1843.99    18.56048905 96.25      96.96477011 0.35049875 1.98601944
1844.1424  18.29840885 96.25      96.76055728999999 0.39063931 2.02267596
1844.2948  18.14632736 96.51468423 97.06989691 0.42381546 2.0230649 
1844.4472  18.11539273 96.75      98.04383749 0.42381546 2.03888503
1844.5996  18.12906763 96.75      100.16091535 0.43318941 1.9542414 
1844.752   18.08475849 107.75     103.90127029 0.4394737  1.94712668
1844.9044  17.92945155 107.75     109.18724945 0.44476309 1.96138338
1845.0568  17.69156452 108.2791993 115.18025501 0.44775561 1.95145986
1845.2092  17.46433383 108.75     120.51244808 0.44775561 2.07553257
1845.3616  17.3507986 108.75     123.85236644 0.44775561 2.1873061 
1845.514   17.40470495 108.9645489 124.51405825 0.44775561 2.19451831
1845.6664  17.6006678 109.11453198 123.18896715 0.44775561 2.20006964
1845.8188  17.84604029 109.26451507 120.62878727 0.42531172 2.2142193 
1845.9712  18.02703619 109.41449815 117.76087511 0.42531172 2.21936299
1846.1236  18.0686031 109.56448123 116.08967123 0.44625935 2.20974371
1846.276   17.96427111 109.75     116.68717805 0.44625935 2.20025709
1846.4284  17.76765618 109.75     118.55711446 0.44189034 2.18591812
1846.5808  17.56289396 122.75     118.79823376 0.43949633 2.16971354
1846.7332  17.4257547 125.75     115.30184633 0.43710232 2.15122836
1846.8856  17.40425816 125.75     109.20332403 0.43428928 2.13712427
1847.038   17.51352605 128.75     103.81914338 0.43428928 2.14323066
1847.1904  17.7338117 128.75     101.12249315 0.44625935 2.17611659
1847.3428  18.01322349 126.10654097 100.00970777 0.43742046 2.21958047
1847.4952  18.2662067 124.60671013 98.34227767 0.42978954 2.2477361 
1847.6476  18.39793045 123.1068793 95.75223998 0.42082294 2.25060281
1847.8     18.34107671 121.25     93.71069532 0.42082294 2.24037887
1847.9524  18.10126909 121.25     94.27441822 0.44625935 2.23251089
1848.1048  17.77554915 124.06878743 94.34435893 0.44677928 2.22722104
1848.2572  17.51858405 125.66860699 94.95436416 0.44722816 2.21459014
1848.4096  17.46263608 127.26842655 96.08433497999999 0.44775561 2.19087816
1848.562   17.63743909 129.25     97.73551831 0.44775561 2.1621516 
1848.7144  17.94522959 129.25     99.81245878999999 0.44775561 2.13280206
1848.8668  18.21932591 126.96046825 101.97837817 0.44775561 2.09911192
1849.0192  18.33162665 125.66061486 103.67172693 0.44775561 2.0606106 
1849.1716  18.27793602 124.36076147 104.40471423 0.44775561 2.02929663
1849.324   18.17673724 122.75     104.14653808 0.44775561 2.01950032
1849.4764  18.17578713 122.75     103.37963975 0.44775561 2.02919901
1849.6288  18.33896389 131.25     102.83231857 0.44775561 2.04214819
1849.7812  18.60020175 131.4886549 102.91319463 0.44775561 2.05005527
1849.9336  18.81338528 131.70681211 103.51527013 0.44775561 2.06314851
1850.086   18.85947684 131.92496932 104.0677395 0.44775561 2.09344717
1850.2384  18.72690916 132.14312654 104.12487114 0.44775561 2.13453206
1850.3908  18.50126395 132.36128375 101.37164215 0.44775561 2.16578345
1850.5432  18.29342402 132.57944096 99.98812624999999 0.44775561 2.17642284
1850.6956  18.15451306 132.79759817 99.52078597000001 0.44775561 2.18004683
1850.848   18.0588902 133.01575539 97.48909424 0.44775561 2.20969742
1851.0004  17.94635349 133.2339126 93.35052665000001 0.43874466 2.25019528
1851.1528  17.78780996 133.45206981 89.83068277 0.43129676 2.31775721
1851.3052  17.61293217 133.67022702 89.62452034 0.43129676 2.37404417
