~Version
 VERS              .         3.0                           : CWLS LOG ASCII STANDARD - VERSION 3.0
 WRAP              .         NO                            : ONE LINE PER DEPTH STEP
 DLM               .         SPACE                         : DELIMITING CHARACTER(SPACE TAB OR COMMA)
~Well Information
#_______________________________________________________________________________
#
#PARAMETER_NAME    .UNIT     VALUE                         : DESCRIPTION
#_______________________________________________________________________________
STRT               .m        400                           : First reference value
STOP               .m        4939.996                      : Last reference value
STEP               .m        0.1524                        : Step increment
NULL               .         -9999                         : Missing value
COMP               .                                       : Company
WELL               .         35-4-1                        : Well name
FLD                .                                       : Field
LOC                .                                       : Location
SRVC               .                                       : Service Company
CTRY               .                                       : Country
DATE               .                                       : Service Date
X                  .                                       : X or East-West coordinate
Y                  .                                       : Y or North South coordinate
GDAT               .                                       : Geodetic Datum
HZCS               .                                       : Horizontal Co-ordinate System
API                .                                       : API NUMBER
CNTY               .                                       : COUNTY
COUNTRY            .                                       : COUNTRY
ORIGINALWELLNAME   .         35-4-1-Composite Log NPHI     : 
STAT               .                                       : STATE
WSTA               .         LOC                           : Well status
TVD                .         NO                            : TVD flag
UWI                .                                       : UWI NUMBER
~Parameter Information Block
#_______________________________________________________________________________
#
#PARAMETER_NAME    .UNIT     VALUE                         : DESCRIPTION
#_______________________________________________________________________________
SET                .         Dataset                       : 
E                  .M        -9999.5000                    : E (Stretch Coefficient Of The Cable)
EPD                .M        -9999.5000                    : Elevation Of Perm. Datum
OTHER              .         <DescLogPlotStart>   NEURALOG PLOT DEFINITION: 
OTHER_10           .         STARTTRACK_                   : 
OTHER_11           .         LEFTX_ 0.500000 inch          : 
OTHER_12           .         RIGHTX_ 2.485000 inch         : 
OTHER_13           .         SCALETYPE_ Linear             : 
OTHER_14           .         NUMCHARTDIVISIONS_ 10         : 
OTHER_15           .         CURVE_ CALI  0.000000   24.000000  (0,0,255)      Solid             2     N: 
OTHER_16           .         ENDTRACK_                     : 
OTHER_17           .         STARTTRACK_                   : 
OTHER_18           .         LEFTX_ 2.985000 inch          : 
OTHER_19           .         RIGHTX_ 4.985000 inch         : 
OTHER_2            .         PLOTDEFVERSION_ 3             : 
OTHER_20           .         SCALETYPE_ Linear             : 
OTHER_21           .         NUMCHARTDIVISIONS_ 10         : 
OTHER_22           .         CURVE_ DT    240.000000 40.000000  (0,131,131)    Solid             2     N: 
OTHER_23           .         ENDTRACK_                     : 
OTHER_24           .         <DescLogPlotEnd>              : 
OTHER_3            .         LASFILE_ C_\nds\projects\well 35-4-1\las\35-4-1-Composite Log DT.las: 
OTHER_4            .         DEPTHSCALE_ 2000.000000       : 
OTHER_5            .         RESOLUTION_ 200               : 
OTHER_6            .         DEPTHLABELFREQ_ 100.000000    : 
OTHER_7            .         HEAVYGRIDFREQ_ 50.000000      : 
OTHER_8            .         MEDIUMGRIDFREQ_ 25.000000     : 
OTHER_9            .         LIGHTGRIDFREQ_ 25.000000      : 
PDAT               .                                       : Permanent Datum
RUN                .         ONE                           : Run Number
Status             .         LOC                           : 
TLFamily_CALI      .         Caliper                       : 
TLFamily_DT        .         Compressional Slowness        : 
TLFamily_GR        .         Gamma Ray                     : 
TLFamily_MD        .         Measured Depth                : 
TLFamily_NPHI      .         Neutron Porosity              : 
TLFamily_RHOB      .         Bulk Density                  : 
Total_depth        .M        4940.0000                     : Total Depth
~Curve Information
#_______________________________________________________________________________
#
#LOGNAME           .UNIT     LOG_ID                        : DESCRIPTION
#_______________________________________________________________________________
MD                 .m                                      :  {F}
CALI               .IN                                     : Caliper {F}
DT                 .US/F                                   : Delta-T {F}
GR                 .GAPI                                   : Gamma Ray {F}
NPHI               .                                       : Neutron Porosity {F}
RHOB               .G/C3                                   : Bulk Density {F}
~Ascii
# ...
3517.6468  13.58956852 99.91661463 51.14299214 0.35867086 2.53094046
3517.7992  13.54721988 101.81640035 50.56575198 0.35778107 2.50083238
3517.9516  13.49480343 105.25     49.7160749 0.35613961 2.478507  
3518.104   13.45036457 105.25     48.92342613 0.35754481 2.4825188 
3518.2564  13.4219148 103.64011965 48.13281771 0.35013713 2.49726533
3518.4088  13.40412569 102.29027189 47.19235983 0.354815   2.50373379
3518.5612  13.38408471 100.75     46.19335164 0.3483072  2.50265556
3518.7136  13.3505008 101.84501119 45.47138221 0.34297257 2.50383179
3518.866   13.30159312 103.1198674 45.39691613 0.3337605  2.50912189
3519.0184  13.24540618 104.39472361 46.0498183 0.32381792 2.51327939
3519.1708  13.19477401 105.66957982 47.18340819 0.36282164 2.51363062
3519.3232  13.15929383 106.94443604 48.36883197 0.36997746 2.5120324 
3519.4756  13.1402506 109.25     49.3634985 0.35349127 2.51069734
3519.628   13.13147418 109.25     50.22974366 0.35349127 2.50825343
3519.7804  13.12502364 109.25     51.23232822 0.34600998 2.50297911
3519.9328  13.11578838 109.25     52.56047757 0.34451372 2.4952381 
3520.0852  13.10271454 109.45716936 54.07978395 0.34451372 2.48812579
3520.2376  13.08665262 109.81458728 55.28056576 0.36695761 2.48545026
3520.39    13.06765396 109.90878722 55.5157405 0.36695761 2.48960723
3520.5424  13.04542569 110.25931125 54.38751537 0.39688279 2.50215421
3520.6948  13.02205445 110.25020533 52.04879415 0.38640898 2.52690912
3520.8472  13.00265064 108.84823926 49.22593578 0.38640898 2.55631374
3520.9996  12.99274059 108.00725302 46.86756544 0.38042394 2.58289863
3521.152   12.99477806 107.03662928 45.737464  0.38042394 2.59850786
3521.3044  13.00479005 105.77365795 45.93961936 0.36845387 2.59863973
3521.4568  13.01642346 105.73353802 46.92253714 0.35798005 2.58485876
3521.6092  13.02539315 103.44834097 47.81466228 0.35798005 2.56421423
3521.7616  13.03181309 100.79075223 47.96487207 0.35049875 2.54563672
3521.914   13.04053539 100.68555871 47.32717575 0.35049875 2.53537425
3522.0664  13.05852893 100.30415504 46.46901906 0.35349127 2.53423922
3522.2188  13.09395929 99.66761796 46.13447258 0.31608479 2.53835221
3522.3712  13.15344619 99.25      46.67442034 0.31608479 2.54266225
3522.5236  13.23834406 99.84920905 47.68418744 0.32805486 2.54428369
3522.676   13.33920891 100.5491301 48.39120894 0.32805486 2.54347925
3522.8284  13.43464665 101.24905116 47.43190561 0.35331486 2.54203792
3522.9808  13.49749441 101.94897222 44.28094633 0.3744389  2.54032966
3523.1332  13.50738182 102.75     39.17851247 0.3744389  2.53630497
3523.2856  13.46224005 100.953557 33.36434755 0.26371571 2.52715627
3523.438   13.38082189 98.85379383 28.9155059 0.26371571 2.51185613
3523.5904  13.29124828 96.75403066 27.29833369 0.24904865 2.49275124
3523.7428  13.21773004 94.65426749 27.97933805 0.23678304 2.4750541 
3523.8952  13.17138896 92.25      29.23864259 0.23678304 2.46424726
3524.0476  13.14942472 93.61781627000001 30.17894965 0.24432208 2.46327924
3524.2     13.14252187 95.21763583000001 31.02107756 0.24940936 2.47149468
3524.3524  13.14489968 96.81745539000001 31.63382105 0.25449664 2.48489421
3524.5048  13.15876173 98.41727495000001 31.065777  0.26221945 2.49732738
3524.6572  13.19227176 100.25     28.87401465 0.26221945 2.50237992
3524.8096  13.25265758 99.22481445 25.90662429 0.25290654 2.49552904
3524.962   13.33560632 98.02494978 23.34187643 0.24662226 2.47610607
3525.1144  13.41969978 96.82508511 21.71627034 0.24127182 2.44874131
3525.2668  13.4692818 95.62522044000001 22.48217856 0.24725686 2.4224308 
3525.4192  13.45083551 94.42535577 25.42437938 0.24725686 2.40742936
3525.5716  13.35412576 92.25      29.78174547 0.2532419  2.41073629
3525.724   13.20349155 92.25      34.31543455 0.2532419  2.43299198
3525.8764  13.04910212 93.77596954000001 37.85045615 0.28316708 2.46825902
3526.0288  12.94253471 95.06153883 39.84470124 0.29064838 2.50680768
3526.1812  12.90904912 96.34710812 40.5093881 0.29064838 2.53937067
3526.3336  12.93769087 97.63267741 40.55884959 0.32506234 2.56037334
3526.486   12.99227305 98.9182467 40.76942838 0.32506234 2.56898118
3526.6384  13.03614353 100.20381598 41.54600225 0.3603574  2.56783931
3526.7908  13.05185775 101.48938527 42.81483529 0.35532978 2.56102817
3526.9432  13.04365282 102.77495456 44.1709554 0.34314877 2.5522485 
3527.0956  13.02857654 104.06052385 45.18061491 0.34644726 2.54391542
3527.248   13.02055719 105.34609314 45.66723648 0.33740179 2.53740383
3527.4004  13.02311157 107.25     45.79789136 0.33571932 2.53319417
3527.5528  13.02978782 107.25     46.0389121 0.33445359 2.53116879
3527.7052  13.03251529 104.74390537 46.8641576 0.33904996 2.53118956
3527.8576  13.02798204 101.75     48.38648561 0.35167752 2.53300216
3528.01    13.02057293 101.75     50.19034456 0.3550324  2.53602812
3528.1624  13.0192172 101.75     51.49742785 0.35497809 2.53942278
3528.3148  13.03495721 101.75     51.52797356 0.36376027 2.54225979
3528.4672  13.07542091 101.75     49.99903049 0.36126712 2.54396636
3528.6196  13.14085879 101.75     47.28966049 0.35289845 2.54508573
3528.772   13.2243676 101.75     44.25808456 0.35131837 2.54778013
3528.9244  13.31423572 99.44001110000001 41.83389281 0.3340399  2.55465745
3529.0768  13.39769005 97.49023101 40.6304786 0.32356608 2.56724808
3529.2292  13.46488079 95.25      40.78747059 0.32356608 2.58469973
3529.3816  13.51099705 95.67546901999999 42.01826563 0.30561097 2.60291774
3529.534   13.53513191 96.17541263 43.77683309 0.30561097 2.61595479
3529.6864  13.53928883 96.67535624 45.41923185 0.32057357 2.61876458
3529.8388  13.52674496 97.17529985 46.34912638 0.3265586  2.60973229
3529.9912  13.50124328 97.75      46.22363431 0.3265586  2.59240886
3530.1436  13.46724619 97.59693265 45.09298952 0.33703242 2.5748058 
3530.296   13.42943239 97.41695295 43.45528995 0.33703242 2.56633659
3530.4484  13.39099003 97.23697325000001 42.07685144 0.34750623 2.57339363
3530.6008  13.35320986 97.05699355 41.59837016 0.3340399  2.59530512
3530.7532  13.31592376 96.87701385 42.22158656 0.3340399  2.62323913
3530.9056  13.27867909 96.69703414999999 43.63150465 0.33104738 2.6436246 
3531.058   13.2441125 96.51705445 45.19977404 0.33104738 2.64462915
3531.2104  13.21904069 96.25      46.29794542 0.3265586  2.62229616
3531.3628  13.21277321 96.25      46.59586889 0.32057357 2.58284351
3531.5152  13.23311166 99.25      46.0147561 0.32057357 2.53893889
3531.6676  13.28182094 100.01432176 44.59383303 0.31009975 2.50263397
3531.82    13.35065959 100.91422026 42.41704227 0.31009975 2.47935588
3531.9724  13.42257285 101.81411877 39.69805308 0.39688279 2.46623421
3532.1248  13.47734294 102.71401727 36.89026045 0.38863379 2.45643165
3532.2772  13.49838845 103.75     34.74779761 0.38145175 2.44502302
3532.4296  13.47890331 103.24079048 34.04708861 0.37426971 2.43266431
3532.582   13.42293957 102.64085815 35.16923228 0.36708767 2.42460136
3532.7344  13.34169294 101.75     37.80322448 0.35990564 2.42641876
3532.8868  13.24830624 101.75     41.06369956 0.34900249 2.43952784
3533.0392  13.15338609 102.35595924 43.8258219 0.34900249 2.46030229
3533.1916  13.06468465 102.75591413 45.23001865 0.33852868 2.48260272
3533.344   12.98720618 103.15586902 45.00484869 0.33852868 2.5018417 
3533.4964  12.92406648 103.75     43.57271185 0.33104738 2.51698947
3533.6488  12.87651873 103.75     41.83423051 0.32039649 2.53000815
3533.8012  12.84313637 101.75     40.79621468 0.31980491 2.54316164
3533.9536  12.82151221 102.00426643 41.08892032 0.32828496 2.55628804
3534.106   12.80964315 102.3042326 42.70181277 0.32397491 2.56697262
3534.2584  12.80801582 102.60419877 44.93485177 0.32980064 2.5721183 
3534.4108  12.81867404 102.90416493 46.81758293 0.34243378 2.57010864
3534.5632  12.84355582 103.2041311 47.62061266 0.34970299 2.56186357
3534.7156  12.88237473 103.75     47.19719073 0.39034807 2.55067905
3534.868   12.93232046 103.75     46.03714994 0.3969407  2.54077509
3535.0204  12.9889216 102.33388159 44.97722315 0.35058111 2.53601932
3535.1728  13.04885365 101.13401692 44.82513151 0.32104435 2.53795147
