~Version
 VERS              .         3.0                           : CWLS LOG ASCII STANDARD - VERSION 3.0
 WRAP              .         NO                            : ONE LINE PER DEPTH STEP
 DLM               .         SPACE                         : DELIMITING CHARACTER(SPACE TAB OR COMMA)
~Well Information
#_______________________________________________________________________________
#
#PARAMETER_NAME    .UNIT     VALUE                         : DESCRIPTION
#_______________________________________________________________________________
STRT               .m        400                           : First reference value
STOP               .m        4939.996                      : Last reference value
STEP               .m        0.1524                        : Step increment
NULL               .         -9999                         : Missing value
COMP               .                                       : Company
WELL               .         35-4-1                        : Well name
FLD                .                                       : Field
LOC                .                                       : Location
SRVC               .                                       : Service Company
CTRY               .                                       : Country
DATE               .                                       : Service Date
X                  .                                       : X or East-West coordinate
Y                  .                                       : Y or North South coordinate
GDAT               .                                       : Geodetic Datum
HZCS               .                                       : Horizontal Co-ordinate System
API                .                                       : API NUMBER
CNTY               .                                       : COUNTY
COUNTRY            .                                       : COUNTRY
ORIGINALWELLNAME   .         35-4-1-Composite Log NPHI     : 
STAT               .                                       : STATE
WSTA               .         LOC                           : Well status
TVD                .         NO                            : TVD flag
UWI                .                                       : UWI NUMBER
~Parameter Information Block
#_______________________________________________________________________________
#
#PARAMETER_NAME    .UNIT     VALUE                         : DESCRIPTION
#_______________________________________________________________________________
SET                .         Dataset                       : 
E                  .M        -9999.5000                    : E (Stretch Coefficient Of The Cable)
EPD                .M        -9999.5000                    : Elevation Of Perm. Datum
OTHER              .         <DescLogPlotStart>   NEURALOG PLOT DEFINITION: 
OTHER_10           .         STARTTRACK_                   : 
OTHER_11           .         LEFTX_ 0.500000 inch          : 
OTHER_12           .         RIGHTX_ 2.485000 inch         : 
OTHER_13           .         SCALETYPE_ Linear             : 
OTHER_14           .         NUMCHARTDIVISIONS_ 10         : 
OTHER_15           .         CURVE_ CALI  0.000000   24.000000  (0,0,255)      Solid             2     N: 
OTHER_16           .         ENDTRACK_                     : 
OTHER_17           .         STARTTRACK_                   : 
OTHER_18           .         LEFTX_ 2.985000 inch          : 
OTHER_19           .         RIGHTX_ 4.985000 inch         : 
OTHER_2            .         PLOTDEFVERSION_ 3             : 
OTHER_20           .         SCALETYPE_ Linear             : 
OTHER_21           .         NUMCHARTDIVISIONS_ 10         : 
OTHER_22           .         CURVE_ DT    240.000000 40.000000  (0,131,131)    Solid             2     N: 
OTHER_23           .         ENDTRACK_                     : 
OTHER_24           .         <DescLogPlotEnd>              : 
OTHER_3            .         LASFILE_ C_\nds\projects\well 35-4-1\las\35-4-1-Composite Log DT.las: 
OTHER_4            .         DEPTHSCALE_ 2000.000000       : 
OTHER_5            .         RESOLUTION_ 200               : 
OTHER_6            .         DEPTHLABELFREQ_ 100.000000    : 
OTHER_7            .         HEAVYGRIDFREQ_ 50.000000      : 
OTHER_8            .         MEDIUMGRIDFREQ_ 25.000000     : 
OTHER_9            .         LIGHTGRIDFREQ_ 25.000000      : 
PDAT               .                                       : Permanent Datum
RUN                .         ONE                           : Run Number
Status             .         LOC                           : 
TLFamily_CALI      .         Caliper                       : 
TLFamily_DT        .         Compressional Slowness        : 
TLFamily_GR        .         Gamma Ray                     : 
TLFamily_MD        .         Measured Depth                : 
TLFamily_NPHI      .         Neutron Porosity              : 
TLFamily_RHOB      .         Bulk Density                  : 
Total_depth        .M        4940.0000                     : Total Depth
~Curve Information
#_______________________________________________________________________________
#
#LOGNAME           .UNIT     LOG_ID                        : DESCRIPTION
#_______________________________________________________________________________
MD                 .m                                      :  {F}
CALI               .IN                                     : Caliper {F}
DT                 .US/F                                   : Delta-T {F}
GR                 .GAPI                                   : Gamma Ray {F}
NPHI               .                                       : Neutron Porosity {F}
RHOB               .G/C3                                   : Bulk Density {F}
~Ascii
# ...
4214.1148  8.97959114 87.25      104.63950782 0.34624381 2.64181535
4214.2672  8.98042953 87.17419056999999 104.51834048 0.34574099 2.63893551
4214.4196  8.978180439999999 87.09919902999999 102.98702136 0.34622426 2.63722342
4214.572   8.970947499999999 87.02420748999999 100.71588548 0.34554696 2.63568469
4214.7244  8.95867312 86.94921595 98.42832057 0.34072183 2.63298779
4214.8768  8.94301495 86.87422441 96.81368137 0.33432959 2.62874243
4215.0292  8.925751249999999 86.75      95.22652071 0.33717774 2.62520261
4215.1816  8.908104359999999 86.75      93.42140514 0.33784194 2.62736017
4215.334   8.89091329 85.77128356999999 91.02959307 0.34252025 2.64075183
4215.4864  8.87520043 85.04279431 88.08375823 0.35073769 2.66735111
4215.6388  8.862772939999999 84.31430505 85.03393140999999 0.3427077  2.70284548
4215.7912  8.85528455 83.58581578 82.41553589999999 0.33756724 2.73736807
4215.9436  8.85298077 82.85732652 80.41324745999999 0.33453701 2.76009132
4216.096   8.854250649999999 82.12883726 78.66929978 0.33113445 2.76480426
4216.2484  8.85652213 81.40034799 76.57760652 0.32133468 2.75288017
4216.4008  8.857805949999999 80.67185873 73.75768174 0.31159601 2.7316604 
4216.5532  8.857635289999999 79.94336946999999 70.46273028 0.31159601 2.70974033
4216.7056  8.856869850000001 79.2148802 67.4446494 0.30710723 2.69226949
4216.858   8.856310110000001 78.25      65.4559203 0.30710723 2.67953061
4217.0104  8.856182779999999 78.25      64.82360254 0.29812968 2.6688891 
4217.1628  8.856152829999999 78.17820073 66.96077158999999 0.29214464 2.65809142
4217.3152  8.85608032 78.13534842 67.57832055999999 0.29214464 2.64730849
4217.4676  8.85613502 78.09249611 67.74363923 0.29663342 2.6387404 
4217.62    8.856749450000001 78.0496438 69.12750625 0.29663342 2.63451947
4217.7724  8.857770459999999 78.00679149 71.80683046 0.30860349 2.63488043
4217.9248  8.85837166 77.96393918 74.01623594 0.31907731 2.63796828
4218.0772  8.85716047 77.92108687 74.15060712 0.31907731 2.64081781
4218.2296  8.854147230000001 77.87823456 72.15881308 0.3265586  2.64129043
4218.382   8.85149831 77.83538224999999 69.03967385 0.3265586  2.63887559
4218.5344  8.85297527 77.79252993999999 65.93405715 0.31009975 2.63454011
4218.6868  8.86174748 77.75      63.89612012 0.30261845 2.62962401
4218.8392  8.87782058 77.64925909 63.66868305 0.30261845 2.62511331
4218.9916  8.897050269999999 77.54927037 65.10912351 0.28167082 2.62150225
4219.144   8.912935040000001 77.44928164 67.21931736000001 0.28167082 2.61923029
4219.2964  8.92042343 77.34929292 69.07389748 0.29962594 2.61891336
4219.4488  8.91926993 77.25      70.68325737000001 0.31309227 2.62099764
4219.6012  8.914483219999999 75.75      73.15100418 0.31309227 2.62539798
4219.7536  8.91332972 75.75      75.03929499 0.31758105 2.63110091
4219.906   8.920818110000001 76.05148943 76.81716774 0.31758105 2.63669894
4220.0584  8.93670288 76.27646405 78.53986298 0.31309227 2.64102673
4220.2108  8.95593257 76.50143868000001 80.14795594 0.31758105 2.64396463
4220.3632  8.972005660000001 76.7264133 81.36730151 0.31758105 2.64623958
4220.5156  8.98077788 76.95138793 81.72485588000001 0.32805486 2.64860534
4220.668   8.98225484 77.25      80.55785487999999 0.32805486 2.65113808
4220.8204  8.979605919999999 77.25      77.52388070000001 0.34301746 2.65276989
4220.9728  8.97659268 76.99912546 73.10137673 0.30808075 2.65209056
4221.1252  8.97538149 76.84914238 68.53918677 0.27755708 2.64832593
4221.2776  8.97598268 76.69915930000001 65.39479449 0.24127182 2.64201719
4221.43    8.97710616 76.54917621 64.59595056000001 0.24127182 2.63474271
4221.5824  8.977793220000001 76.39919313 65.7380692 0.24560796 2.62826822
4221.7348  8.97779323 76.25      67.21338864000001 0.24800197 2.62346404
4221.8872  8.97746515 76.65206144 66.59107774 0.25039598 2.61989132
4222.0396  8.97720958 77.05201633 66.32240821000001 0.25278999 2.61623014
4222.192   8.977154880000001 77.45197122 68.48049605 0.25518401 2.61120273
4222.3444  8.977227510000001 77.85192610999999 64.09994512 0.25757802 2.6045719 
4222.4968  8.97732997 78.25      58.01395571 0.25997203 2.5974333 
4222.6492  8.97732997 78.75094601000001 68.49235645 0.26236605 2.5918091 
4222.8016  8.97732997 78.67618142000001 89.38828126 0.26521197 2.58980618
4222.954   8.97732997 78.43469999 93.72151267 0.26521197 2.59264145
4223.1064  8.97732997 77.91839014999999 82.55206724999999 0.29214464 2.59999025
4223.2588  8.97732997 78.75514927 82.80704378999999 0.34900249 2.61000431
4223.4112  8.97732997 78.06961183 98.17351665 0.34900249 2.62000959
4223.5636  8.97732997 79.58651268 108.39595153 0.38790524 2.62764792
4223.716   8.97732997 83.79623237 107.27651597 0.38790524 2.63192801
4223.8684  8.97732997 85.74311212000001 104.0430487 0.38004605 2.63342315
4224.0208  8.97732997 84.76539228 102.02589467 0.3757069  2.63377858
4224.1732  8.97732997 78.64151799 99.87893961 0.37136775 2.63459978
4224.3256  8.97732997 76.99800325 98.52195   0.3670286  2.63653989
4224.478   8.97732997 78.1345717 96.52745209 0.36268946 2.63910669
4224.6304  8.97732997 76.98871474000001 91.4541404 0.35835031 2.64121197
4224.7828  8.97732997 77.5082871 86.25451710999999 0.35401116 2.64187858
4224.9352  8.97732997 78.05231847 84.91861819 0.34967201 2.64083941
4225.0876  8.97732997 78.85222825 85.79204205000001 0.34451372 2.63851521
4225.24    8.97732997 79.65213803 85.67197769000001 0.34451372 2.63579452
4225.3924  8.97732997 80.45204781 85.18541892 0.33703242 2.63346435
4225.5448  8.97732997 81.25      85.51046006999999 0.34268381 2.63219895
4225.6972  8.97732997 81.02447479999999 85.00515158 0.34762147 2.63232173
4225.8496  8.97732997 80.79950018 82.40710697999999 0.35349127 2.63392199
4226.002   8.97732997 80.57452555 79.4135091 0.35349127 2.63686246
4226.1544  8.97732997 80.34955093000001 78.04444615 0.34210908 2.64097831
4226.3068  8.97732997 80.1245763 78.12606698 0.33254364 2.64596379
4226.4592  8.97732997 79.75      78.48208932 0.33254364 2.65132201
4226.6116  8.97732997 79.75      79.00407273 0.31159601 2.65626501
4226.764   8.97732997 79.54976828 79.21993061000001 0.31159601 2.65978396
4226.9164  8.97732997 79.3997852 78.50424384 0.30561097 2.66108487
4227.0688  8.97732997 79.25      76.98078201 0.29214464 2.66001109
4227.2212  8.97732997 75.75      75.25216435999999 0.29214464 2.65724083
4227.3736  8.97732997 75.75      74.00211603 0.29214464 2.65391425
4227.526   8.97732997 76.65066211 73.60618329 0.29214464 2.65093938
4227.6784  8.97732997 77.32558598999999 74.01855968 0.29214464 2.64848953
4227.8308  8.97732997 78.00050987 74.96647147 0.29214464 2.6461438 
4227.9832  8.97732997 78.67543374 76.25250751 0.29214464 2.6434963 
4228.1356  8.97732997 79.35035762 77.86984422 0.30659973 2.64069966
4228.288   8.97732997 80.25      79.83534568 0.31065996 2.63850719
4228.4404  8.97732997 80.25      81.85005803999999 0.32450015 2.63762696
4228.5928  8.97732997 80.50002872 83.24413489 0.34328673 2.63810855
4228.7452  8.97732997 80.75      83.24697306 0.33993518 2.63911472
4228.8976  8.97732997 80.75      81.50867572999999 0.3292609  2.63955225
4229.05    8.97732997 79.55013216 78.39022874 0.32714493 2.63879847
4229.2024  8.97732997 78.65023366 74.91728343 0.32111412 2.63724964
4229.3548  8.977432439999999 77.75      72.300352  0.32026836 2.63600188
4229.5072  8.977505069999999 77.60007278 71.37682939 0.32066704 2.63600132
4229.6596  8.97745037 77.45008969 72.26587031 0.31154568 2.637378  
4229.812   8.977194799999999 77.30010661 74.35740577999999 0.31167557 2.6394716 
4229.9644  8.976969179999999 77.15012351999999 76.55351997 0.30687685 2.64125302
4230.1168  8.97704182 77.00014044 77.70410685 0.29857588 2.641977  
4230.2692  8.97767419 76.85015736 77.10630786999999 0.29741252 2.64154271
4230.4216  8.978542089999999 76.70017427000001 74.87652387 0.29313943 2.64043242
4230.574   8.97871275 76.55019119000001 71.98668266 0.29214464 2.63954112
4230.7264  8.97742893 76.40020810999999 69.81581917 0.2786783  2.63994006
4230.8788  8.975157449999999 76.25      69.41128725999999 0.25773067 2.64265213
