~Version
 VERS              .         3.0                           : CWLS LOG ASCII STANDARD - VERSION 3.0
 WRAP              .         NO                            : ONE LINE PER DEPTH STEP
 DLM               .         SPACE                         : DELIMITING CHARACTER(SPACE TAB OR COMMA)
~Well Information
#_______________________________________________________________________________
#
#PARAMETER_NAME    .UNIT     VALUE                         : DESCRIPTION
#_______________________________________________________________________________
STRT               .m        400                           : First reference value
STOP               .m        4939.996                      : Last reference value
STEP               .m        0.1524                        : Step increment
NULL               .         -9999                         : Missing value
COMP               .                                       : Company
WELL               .         35-4-1                        : Well name
FLD                .                                       : Field
LOC                .                                       : Location
SRVC               .                                       : Service Company
CTRY               .                                       : Country
DATE               .                                       : Service Date
X                  .                                       : X or East-West coordinate
Y                  .                                       : Y or North South coordinate
GDAT               .                                       : Geodetic Datum
HZCS               .                                       : Horizontal Co-ordinate System
API                .                                       : API NUMBER
CNTY               .                                       : COUNTY
COUNTRY            .                                       : COUNTRY
ORIGINALWELLNAME   .         35-4-1-Composite Log NPHI     : 
STAT               .                                       : STATE
WSTA               .         LOC                           : Well status
TVD                .         NO                            : TVD flag
UWI                .                                       : UWI NUMBER
~Parameter Information Block
#_______________________________________________________________________________
#
#PARAMETER_NAME    .UNIT     VALUE                         : DESCRIPTION
#_______________________________________________________________________________
SET                .         Dataset                       : 
E                  .M        -9999.5000                    : E (Stretch Coefficient Of The Cable)
EPD                .M        -9999.5000                    : Elevation Of Perm. Datum
OTHER              .         <DescLogPlotStart>   NEURALOG PLOT DEFINITION: 
OTHER_10           .         STARTTRACK_                   : 
OTHER_11           .         LEFTX_ 0.500000 inch          : 
OTHER_12           .         RIGHTX_ 2.485000 inch         : 
OTHER_13           .         SCALETYPE_ Linear             : 
OTHER_14           .         NUMCHARTDIVISIONS_ 10         : 
OTHER_15           .         CURVE_ CALI  0.000000   24.000000  (0,0,255)      Solid             2     N: 
OTHER_16           .         ENDTRACK_                     : 
OTHER_17           .         STARTTRACK_                   : 
OTHER_18           .         LEFTX_ 2.985000 inch          : 
OTHER_19           .         RIGHTX_ 4.985000 inch         : 
OTHER_2            .         PLOTDEFVERSION_ 3             : 
OTHER_20           .         SCALETYPE_ Linear             : 
OTHER_21           .         NUMCHARTDIVISIONS_ 10         : 
OTHER_22           .         CURVE_ DT    240.000000 40.000000  (0,131,131)    Solid             2     N: 
OTHER_23           .         ENDTRACK_                     : 
OTHER_24           .         <DescLogPlotEnd>              : 
OTHER_3            .         LASFILE_ C_\nds\projects\well 35-4-1\las\35-4-1-Composite Log DT.las: 
OTHER_4            .         DEPTHSCALE_ 2000.000000       : 
OTHER_5            .         RESOLUTION_ 200               : 
OTHER_6            .         DEPTHLABELFREQ_ 100.000000    : 
OTHER_7            .         HEAVYGRIDFREQ_ 50.000000      : 
OTHER_8            .         MEDIUMGRIDFREQ_ 25.000000     : 
OTHER_9            .         LIGHTGRIDFREQ_ 25.000000      : 
PDAT               .                                       : Permanent Datum
RUN                .         ONE                           : Run Number
Status             .         LOC                           : 
TLFamily_CALI      .         Caliper                       : 
TLFamily_DT        .         Compressional Slowness        : 
TLFamily_GR        .         Gamma Ray                     : 
TLFamily_MD        .         Measured Depth                : 
TLFamily_NPHI      .         Neutron Porosity              : 
TLFamily_RHOB      .         Bulk Density                  : 
Total_depth        .M        4940.0000                     : Total Depth
~Curve Information
#_______________________________________________________________________________
#
#LOGNAME           .UNIT     LOG_ID                        : DESCRIPTION
#_______________________________________________________________________________
MD                 .m                                      :  {F}
CALI               .IN                                     : Caliper {F}
DT                 .US/F                                   : Delta-T {F}
GR                 .GAPI                                   : Gamma Ray {F}
NPHI               .                                       : Neutron Porosity {F}
RHOB               .G/C3                                   : Bulk Density {F}
~Ascii
# ...
3998.0116  9.208772420000001 97.25      93.21285863999999 0.41633416 2.57741806
3998.164   9.18951204 97.25      93.20274085 0.41633416 2.57940425
3998.3164  9.162597829999999 96.25      94.46217073 0.40885287 2.58154892
3998.4688  9.12684593 96.25      96.24435217 0.39688279 2.58408173
3998.6212  9.08609876 95.75      97.71174877999999 0.39688279 2.58516134
3998.7736  9.04691147 95.75      98.51005300999999 0.40735661 2.58197806
3998.926   9.014734239999999 96.25      98.9447998 0.40735661 2.572864  
3999.0784  8.992397479999999 96.25      99.58966019 0.43877805 2.55866525
3999.2308  8.979849489999999 96.25      100.59058866 0.42680798 2.54312612
3999.3832  8.97547174 97.25      101.32837841 0.42680798 2.53110257
3999.5356  8.976181199999999 97.25      100.79165374 0.41783042 2.5262351 
3999.688   8.978200559999999 97.75      98.38139888000001 0.41783042 2.52951253
3999.8404  8.97851438 93.75      94.55695188999999 0.40586035 2.53914436
3999.9928  8.97662886 93.75      90.71966086 0.43877805 2.5522266 
4000.1452  8.97475684 92.75      88.50864377000001 0.43877805 2.56618309
4000.2976  8.9762474  92.75      88.76964030000001 0.42381546 2.57967071
4000.45    8.98335887 92.75      91.20844640999999 0.42381546 2.59181198
4000.6024  8.995866830000001 95.43269874000001 94.61700107999999 0.41633416 2.60132114
4000.7548  9.01196247 96.00674554 97.73720337 0.39837905 2.6063887 
4000.9072  9.02940911 95.53419467000001 99.74187376 0.39837905 2.60561078
4001.0596  9.04685108 95.93802178 100.63147577 0.40586035 2.59906853
4001.212   9.06371395 96.07319895000001 101.02709355 0.40586035 2.58861432
4001.3644  9.07909873 96.42253902 101.71208908 0.40586035 2.57705077
4001.5168  9.09159886 96.08340708 103.12546141 0.41334165 2.56645908
4001.6692  9.099719609999999 96.39832036 104.98962001 0.41334165 2.55786973
4001.8216  9.1028913  96.14531083999999 106.14087923 0.41783042 2.55223668
4001.974   9.101792079999999 93.28675858 104.99322655 0.41783042 2.55180479
4002.1264  9.098236780000001 92.32167532 100.59731993 0.42381546 2.5600114 
4002.2788  9.09468148 92.05951260000001 96.51127287 0.41334165 2.57929237
4002.4312  9.09358226 92.07819434 87.87350441 0.41334165 2.60785045
4002.5836  9.096753939999999 91.30348845 80.27055540000001 0.40436409 2.63837956
4002.736   9.104874690000001 89.30018554999999 80.06932372 0.40436409 2.66036583
4002.8884  9.117272359999999 89.25      89.28935884000001 0.39389027 2.66516529
4003.0408  9.132584509999999 89.25      101.51180267 0.40286783 2.65073563
4003.1932  9.14950207 94.25      107.64454209 0.40286783 2.62272173
4003.3456  9.16730207 94.25      105.66205713 0.42381546 2.59141044
4003.498   9.185149429999999 95.25      102.01360618 0.42381546 2.56657901
4003.6504  9.20129283 95.99998308000001 102.7072334 0.40885287 2.55284086
4003.8028  9.213033250000001 96.75      106.34702833 0.39430595 2.54920965
4003.9552  9.2187111  96.75      107.65769512 0.39385097 2.55151952
4004.1076  9.21939266 96.75      105.40037174 0.39676048 2.55565318
4004.26    9.218907870000001 96.75      103.59490608 0.39701969 2.55977385
4004.4124  9.220981220000001 96.75      105.2070906 0.40891005 2.56394983
4004.5648  9.225224389999999 96.75      107.40372214 0.41292179 2.56832505
4004.7172  9.2260013  96.75      108.254278 0.4141544  2.57122033
4004.8696  9.21598169 96.75      110.60418259 0.42395885 2.57036521
4005.022   9.19187215 96.25      110.69430393 0.42703092 2.57550274
4005.1744  9.158124470000001 96.25      110.27732651 0.43371521 2.57033811
4005.3268  9.125093659999999 93.75      118.55070552 0.44711173 2.55958731
4005.4792  9.10249039 90.75      110.9287697 0.44223821 2.56207416
4005.6316  9.09348065 90.75      79.98750506 0.41596024 2.58993175
4005.784   9.09335651 92.54808282 72.30862442999999 0.3902981  2.63007345
4005.9364  9.094568499999999 93.74794749 94.5125309 0.37624923 2.65255961
4006.0888  9.09345897 94.94781216 107.2900901 0.38472556 2.63991914
4006.2412  9.09365575 96.14767682999999 106.68380731 0.39370311 2.60313478
4006.3936  9.102610779999999 97.34754150000001 107.21366333 0.40436409 2.56772123
4006.546   9.124958489999999 98.54740617 105.60908518 0.40436409 2.55272585
4006.6984  9.15776367 99.74727084 99.91723330000001 0.38321093 2.56927735
4006.8508  9.191584000000001 100.75     95.60161191 0.37154012 2.62861929
4007.0032  9.216325899999999 90.75      92.14444352 0.35986931 2.73153799
4007.1556  9.22721342 90.75      87.44199450000001 0.34600998 2.84429487
4007.308   9.22660716 91.76066034999999 87.89639547 0.34600998 2.93148213
4007.4604  9.22108017 92.43558423 97.5161107 0.37285815 2.88934837
4007.6128  9.21663289 93.32613980000001 107.18034541 0.39538653 2.72072184
4007.7652  9.215775170000001 93.70448236999999 106.27914875 0.39538653 2.64093826
4007.9176  9.217436920000001 94.43433974 98.13453437 0.38907897 2.59867297
4008.07    9.219482040000001 95.33273443 92.19693033999999 0.38481464 2.57273961
4008.2224  9.22048777 95.12313463 86.17219027 0.3805503  2.60509   
4008.3748  9.220185450000001 92.3606743 77.5054878 0.37628596 2.6231767 
4008.5272  9.21897678 89.63140772 77.52655116 0.37202163 2.63258585
4008.6796  9.21758936 89.86385343000001 88.36867633999999 0.36695761 2.64697572
4008.832   9.21705326 91.12097396 96.64456238 0.36695761 2.61904673
4008.9844  9.21832362 92.25438397000001 101.77170662 0.38160199 2.57842395
4009.1368  9.22117079 93.13774318 107.85094505 0.38968179 2.55393345
4009.2892  9.2235759  94.09950861999999 108.56091924 0.39776158 2.54392974
4009.4416  9.2221726  95.22554488999999 105.93103175 0.40735661 2.54438417
4009.594   9.21401938 96.02633758 111.1619934 0.40735661 2.52843257
4009.7464  9.198951360000001 96.58241336 104.50105127 0.42037381 2.54037117
4009.8988  9.179872400000001 94.4370627 80.96278017 0.43129676 2.53149532
4010.0512  9.161495009999999 93.75      72.02823986 0.43129676 2.51867345
4010.2036  9.14763559 93.75      54.66473842 0.40286783 2.57585644
4010.356   9.13940745 84.75      44.71502575 0.40286783 2.68042586
4010.5084  9.13528818 84.75      56.50139518 0.37249443 2.71384743
4010.6608  9.13253332 89.13750449 50.72293302 0.35573634 2.66077699
4010.8132  9.12865536 92.75      59.52504855 0.34158745 2.62352915
4010.9656  9.122337460000001 92.75      100.06194577 0.31705766 2.63754896
4011.118   9.113448180000001 94.09500969 106.63540227 0.32067947 2.64219931
4011.2704  9.103590710000001 94.99490819 98.07225798 0.36739568 2.60960541
4011.4228  9.09603924 95.8948067 101.32882639 0.39452353 2.57455035
4011.5752  9.094846260000001 97.25      98.46699601 0.39360937 2.56553275
4011.7276  9.10268958 97.25      100.4201433 0.39721837 2.57632114
4011.88    9.11895138 96.74581166999999 98.00086204 0.39963869 2.58574601
4012.0324  9.1386886  96.40834974000001 97.79727319 0.40141653 2.57856103
4012.1848  9.155067710000001 96.07088779999999 99.04379347 0.40425524 2.58085521
4012.3372  9.162956299999999 95.73342586 97.76892981 0.40592315 2.58436046
4012.4896  9.161637949999999 95.39596392 94.82499794 0.40902798 2.58966084
4012.642   9.156153740000001 95.05850198 94.94093298 0.4087906  2.59560201
4012.7944  9.153927980000001 94.72104004000001 99.93875153 0.39983465 2.59870401
4012.9468  9.16068557 94.38357811 104.62562916 0.39258441 2.59616029
4013.0992  9.17737764 94.04611617 104.12531521 0.39208947 2.58788867
4013.2516  9.199046190000001 93.70865422999999 101.76221367 0.38907431 2.57737152
4013.404   9.217596090000001 93.37119229 101.09552495 0.38682993 2.56981757
4013.5564  9.225636339999999 93.03373035 99.05686892999999 0.38491272 2.56839929
4013.7088  9.21997694 92.75      95.84697228 0.3879986  2.57209092
4013.8612  9.20234561 95.01022924999999 97.95378995 0.39069186 2.57697815
4014.0136  9.177247550000001 96.96000934 102.43329631 0.39338513 2.57890405
4014.166   9.148865199999999 99.25      104.93814733 0.39607839 2.57651303
4014.3184  9.11913824 99.25      105.98414909 0.39837905 2.57195631
4014.4708  9.087986020000001 98.8119262 105.04024486 0.38491272 2.56912405
4014.6232  9.05519934 98.57195326999999 102.30649655 0.38491272 2.57102597
