~Version
 VERS              .         3.0                           : CWLS LOG ASCII STANDARD - VERSION 3.0
 WRAP              .         NO                            : ONE LINE PER DEPTH STEP
 DLM               .         SPACE                         : DELIMITING CHARACTER(SPACE TAB OR COMMA)
~Well Information
#_______________________________________________________________________________
#
#PARAMETER_NAME    .UNIT     VALUE                         : DESCRIPTION
#_______________________________________________________________________________
STRT               .m        400                           : First reference value
STOP               .m        4939.996                      : Last reference value
STEP               .m        0.1524                        : Step increment
NULL               .         -9999                         : Missing value
COMP               .                                       : Company
WELL               .         35-4-1                        : Well name
FLD                .                                       : Field
LOC                .                                       : Location
SRVC               .                                       : Service Company
CTRY               .                                       : Country
DATE               .                                       : Service Date
X                  .                                       : X or East-West coordinate
Y                  .                                       : Y or North South coordinate
GDAT               .                                       : Geodetic Datum
HZCS               .                                       : Horizontal Co-ordinate System
API                .                                       : API NUMBER
CNTY               .                                       : COUNTY
COUNTRY            .                                       : COUNTRY
ORIGINALWELLNAME   .         35-4-1-Composite Log NPHI     : 
STAT               .                                       : STATE
WSTA               .         LOC                           : Well status
TVD                .         NO                            : TVD flag
UWI                .                                       : UWI NUMBER
~Parameter Information Block
#_______________________________________________________________________________
#
#PARAMETER_NAME    .UNIT     VALUE                         : DESCRIPTION
#_______________________________________________________________________________
SET                .         Dataset                       : 
E                  .M        -9999.5000                    : E (Stretch Coefficient Of The Cable)
EPD                .M        -9999.5000                    : Elevation Of Perm. Datum
OTHER              .         <DescLogPlotStart>   NEURALOG PLOT DEFINITION: 
OTHER_10           .         STARTTRACK_                   : 
OTHER_11           .         LEFTX_ 0.500000 inch          : 
OTHER_12           .         RIGHTX_ 2.485000 inch         : 
OTHER_13           .         SCALETYPE_ Linear             : 
OTHER_14           .         NUMCHARTDIVISIONS_ 10         : 
OTHER_15           .         CURVE_ CALI  0.000000   24.000000  (0,0,255)      Solid             2     N: 
OTHER_16           .         ENDTRACK_                     : 
OTHER_17           .         STARTTRACK_                   : 
OTHER_18           .         LEFTX_ 2.985000 inch          : 
OTHER_19           .         RIGHTX_ 4.985000 inch         : 
OTHER_2            .         PLOTDEFVERSION_ 3             : 
OTHER_20           .         SCALETYPE_ Linear             : 
OTHER_21           .         NUMCHARTDIVISIONS_ 10         : 
OTHER_22           .         CURVE_ DT    240.000000 40.000000  (0,131,131)    Solid             2     N: 
OTHER_23           .         ENDTRACK_                     : 
OTHER_24           .         <DescLogPlotEnd>              : 
OTHER_3            .         LASFILE_ C_\nds\projects\well 35-4-1\las\35-4-1-Composite Log DT.las: 
OTHER_4            .         DEPTHSCALE_ 2000.000000       : 
OTHER_5            .         RESOLUTION_ 200               : 
OTHER_6            .         DEPTHLABELFREQ_ 100.000000    : 
OTHER_7            .         HEAVYGRIDFREQ_ 50.000000      : 
OTHER_8            .         MEDIUMGRIDFREQ_ 25.000000     : 
OTHER_9            .         LIGHTGRIDFREQ_ 25.000000      : 
PDAT               .                                       : Permanent Datum
RUN                .         ONE                           : Run Number
Status             .         LOC                           : 
TLFamily_CALI      .         Caliper                       : 
TLFamily_DT        .         Compressional Slowness        : 
TLFamily_GR        .         Gamma Ray                     : 
TLFamily_MD        .         Measured Depth                : 
TLFamily_NPHI      .         Neutron Porosity              : 
TLFamily_RHOB      .         Bulk Density                  : 
Total_depth        .M        4940.0000                     : Total Depth
~Curve Information
#_______________________________________________________________________________
#
#LOGNAME           .UNIT     LOG_ID                        : DESCRIPTION
#_______________________________________________________________________________
MD                 .m                                      :  {F}
CALI               .IN                                     : Caliper {F}
DT                 .US/F                                   : Delta-T {F}
GR                 .GAPI                                   : Gamma Ray {F}
NPHI               .                                       : Neutron Porosity {F}
RHOB               .G/C3                                   : Bulk Density {F}
~Ascii
# ...
1349.452   -9999      151.86271982 48.35025463 -9999      -9999     
1349.6044  -9999      150.25     48.89185717 -9999      -9999     
1349.7568  16.65491184 150.25     49.17272307 -9999      -9999     
1349.9092  0.0906801  149.37175718 48.93507708 -9999      -9999     
1350.0616  0.09068010000000015 148.77182485 48.09125654 -9999      -9999     
1350.214   18.89168766 148.25     46.79951501 -9999      -9999     
1350.3664  19.86040304 147.25     45.40888213 -9999      -9999     
1350.5188  20.69465923 147.25     44.33610774 -9999      -9999     
1350.6712  21.67254408 150.9810941 43.91627383 -9999      -9999     
1350.8236  21.67254408 153.53080652 44.2870689 -9999      -9999     
1350.976   21.34104762 155.75     45.31942682 -9999      -9999     
1351.1284  21.15968758 148.97298502 46.64661147 -9999      -9999     
1351.2808  20.97832754 142.97366167 47.78274009 -9999      -9999     
1351.4332  20.79696749 135.75     48.36446239 -9999      -9999     
1351.5856  20.61560745 135.75     48.37400858 -9999      -9999     
1351.738   20.43424741 148.75     48.19355962 -9999      -9999     
1351.8904  20.64891672 140.28296035 48.39172383 -9999      -9999     
1352.0428  20.18491621 132.78380617 49.33899305 -9999      -9999     
1352.1952  20.11071908 123.75     50.92808654 -9999      -9999     
1352.3476  19.16258014 123.75     52.61336963 -9999      -9999     
1352.5     18.31832708 135.86729075 53.75370182 -9999      -9999     
1352.6524  17.86900833 146.25     54.00675391 -9999      -9999     
1352.8048  17.68721614 146.25     53.49929248 -9999      -9999     
1352.9572  17.73710783 146.90766714 52.66851465 -9999      -9999     
1353.1096  17.58401788 147.35761639 51.92743734 -9999      -9999     
1353.262   17.66417712 147.75     51.44240271 -9999      -9999     
1353.4144  18.01016574 141.25     51.15904917 -9999      -9999     
1353.5668  18.00617947 141.25     50.89250465 -9999      -9999     
1353.7192  17.8441797 142.41873492 50.51825695 -9999      -9999     
1353.8716  17.86004673 142.0232888 50.01172458 -9999      -9999     
1354.024   17.74976385 145.41127192 49.43019467 -9999      -9999     
1354.1764  17.86256988 143.71394215 49.15369325 -9999      -9999     
1354.3288  17.82351609 146.85020456 48.57254885 -9999      -9999     
1354.4812  18.29952124 169.14773114 48.34350215 -9999      -9999     
1354.6336  19.10500459 172.1642975 48.06628777 -9999      -9999     
1354.786   20.11528097 163.03406001 47.17911615 -9999      -9999     
1354.9384  21.11132608 161.67011409 46.77883152 -9999      -9999     
1355.0908  21.8799986 156.37676072 47.17371923 -9999      -9999     
1355.2432  22.30975254 153.21029571 46.05689365 -9999      -9999     
1355.3956  22.42975077 152.50331343 44.28736375 -9999      -9999     
1355.548   22.36869836 147.46362468 48.0358851 -9999      -9999     
1355.7004  22.26986181 142.78064239 59.00679074 -9999      -9999     
1355.8528  22.21940953 142.68007802 70.45223572 -9999      -9999     
1356.0052  22.22974382 144.15095861 78.2732017 -9999      -9999     
1356.1576  22.26682783 144.92570599 86.07232118 -9999      -9999     
1356.31    22.29475651 145.82129128 95.38759199 -9999      -9999     
1356.4624  22.30044122 147.41491283 101.81418082 -9999      -9999     
1356.6148  22.29195413 146.92946291 103.85711633 -9999      -9999     
1356.7672  22.28283321 147.73133497 105.13009376 -9999      -9999     
1356.9196  22.28064733 146.65007651 104.91585267 -9999      -9999     
1357.072   22.28286718 147.96880098 103.79008948 -9999      -9999     
1357.2244  22.28679833 156.00278405 102.50808018 -9999      -9999     
1357.3768  22.28990134 157.46043664 101.81153963 -9999      -9999     
1357.5292  22.29078505 157.88420896 102.1086584 -9999      -9999     
1357.6816  22.29167047 160.14595452 103.27181255 -9999      -9999     
1357.834   22.29255516 160.63097939 104.72014949 -9999      -9999     
1357.9864  22.29343984 162.80374373 105.75794099 -9999      -9999     
1358.1388  22.29432452 162.86381094 105.93719876 -9999      -9999     
1358.2912  22.2952092 158.76392136 105.30163564 -9999      -9999     
1358.4436  22.29609389 156.85329457 104.21865361 -9999      -9999     
1358.596   22.29697857 154.25     103.08889237 -9999      -9999     
1358.7484  22.29786325 145.75     102.10388306 -9999      -9999     
1358.9008  22.29874794 145.75     101.22577395 -9999      -9999     
1359.0532  22.29963262 147.49836581 100.36186155 -9999      -9999     
1359.2056  22.3005173 148.69823048 99.52063964 -9999      -9999     
1359.358   22.30140199 149.75     98.86342174000001 -9999      -9999     
1359.5104  22.30228667 150.08698996 98.58854028 -9999      -9999     
1359.6628  22.30317135 150.38695612 98.79030075 -9999      -9999     
1359.8152  22.30405604 150.75     99.40196732 -9999      -9999     
1359.9676  22.30494072 150.75     100.23592958 -9999      -9999     
1360.12    22.3058254 154.75     101.09758783 -9999      -9999     
1360.2724  22.30671009 160.13913269 101.87576209 -9999      -9999     
1360.4248  22.30759477 164.93859137 102.55079743 -9999      -9999     
1360.5772  22.30847945 170.75     103.1685116 -9999      -9999     
1360.7296  22.30936413 170.75     103.75772808 -9999      -9999     
1360.882   22.31024882 166.72485903 104.27336865 -9999      -9999     
1361.0344  22.3111335 164.47835481 104.57597512 -9999      -9999     
1361.1868  22.31201818 162.18054865 104.46672184 -9999      -9999     
1361.3392  22.31290287 160.01097246 103.77095248 -9999      -9999     
1361.4916  22.31378755 157.63455915 102.43522674 -9999      -9999     
1361.644   22.31467223 155.8612869 100.60816953 -9999      -9999     
1361.7964  22.31555692 156.82351626 98.63494505 -9999      -9999     
1361.9488  22.3164416 158.2591289 96.96294254 -9999      -9999     
1362.1012  22.31732628 158.98271924 95.96593626000001 -9999      -9999     
1362.2536  22.31821097 160.46604679 95.78130261 -9999      -9999     
1362.406   22.31909565 161.07256615 96.24581304 -9999      -9999     
1362.5584  22.31998033 158.24739887 96.99355466 -9999      -9999     
1362.7108  22.32086502 155.20567287 97.64665209 -9999      -9999     
1362.8632  22.3217497 152.59886705 97.99712927 -9999      -9999     
1363.0156  22.32263438 149.65388139 98.07067873 -9999      -9999     
1363.168   22.32351906 147.32722232 98.02575157 -9999      -9999     
1363.3204  22.32440351 144.82705886 97.99241212 -9999      -9999     
1363.4728  22.3245693 142.91223893 97.95436133 -9999      -9999     
1363.6252  22.32494311 140.14081573 97.77472014 -9999      -9999     
1363.7776  22.32620951 140.40436515 97.32024692 -9999      -9999     
1363.93    22.32888594 145.61090615 96.59349573999999 -9999      -9999     
1364.0824  22.33238135 148.24398609 95.76275604999999 -9999      -9999     
1364.2348  22.33357828 150.09124391 95.08455954 -9999      -9999     
1364.3872  22.32962361 152.82950245 94.78588169 -9999      -9999     
1364.5396  22.32194004 152.71616082 94.97025193 -9999      -9999     
1364.692   22.31819307 151.67327169 95.61224987 -9999      -9999     
1364.8444  22.32767622 151.13285868 96.55401707 -9999      -9999     
1364.9968  22.35106401 150.39622772 97.54506402 -9999      -9999     
1365.1492  22.37234   149.99151567 98.30509384 -9999      -9999     
1365.3016  22.36307979 149.15635484 98.6027093 -9999      -9999     
1365.454   22.29981245 148.87763569 98.36980117 -9999      -9999     
1365.6064  22.18399626 150.641186 97.76217939 -9999      -9999     
1365.7588  22.04857827 152.66289102 97.11571066 -9999      -9999     
1365.9112  21.94317555 154.65878029 96.79111537 -9999      -9999     
1366.0636  21.90634333 154.79709718 96.97527037 -9999      -9999     
1366.216   21.94430976 152.92765732 97.579116  -9999      -9999     
1366.3684  22.02829972 151.96915691 98.27300484 -9999      -9999     
1366.5208  22.12372352 150.97739952 98.67280826 -9999      -9999     
1366.6732  22.2051931 149.72240672 98.53727467 -9999      -9999     
1366.8256  22.26778358 149.79497368 97.88613654 -9999      -9999     
