~Version
 VERS              .         3.0                           : CWLS LOG ASCII STANDARD - VERSION 3.0
 WRAP              .         NO                            : ONE LINE PER DEPTH STEP
 DLM               .         SPACE                         : DELIMITING CHARACTER(SPACE TAB OR COMMA)
~Well Information
#_______________________________________________________________________________
#
#PARAMETER_NAME    .UNIT     VALUE                         : DESCRIPTION
#_______________________________________________________________________________
STRT               .m        400                           : First reference value
STOP               .m        4939.996                      : Last reference value
STEP               .m        0.1524                        : Step increment
NULL               .         -9999                         : Missing value
COMP               .                                       : Company
WELL               .         35-4-1                        : Well name
FLD                .                                       : Field
LOC                .                                       : Location
SRVC               .                                       : Service Company
CTRY               .                                       : Country
DATE               .                                       : Service Date
X                  .                                       : X or East-West coordinate
Y                  .                                       : Y or North South coordinate
GDAT               .                                       : Geodetic Datum
HZCS               .                                       : Horizontal Co-ordinate System
API                .                                       : API NUMBER
CNTY               .                                       : COUNTY
COUNTRY            .                                       : COUNTRY
ORIGINALWELLNAME   .         35-4-1-Composite Log NPHI     : 
STAT               .                                       : STATE
WSTA               .         LOC                           : Well status
TVD                .         NO                            : TVD flag
UWI                .                                       : UWI NUMBER
~Parameter Information Block
#_______________________________________________________________________________
#
#PARAMETER_NAME    .UNIT     VALUE                         : DESCRIPTION
#_______________________________________________________________________________
SET                .         Dataset                       : 
E                  .M        -9999.5000                    : E (Stretch Coefficient Of The Cable)
EPD                .M        -9999.5000                    : Elevation Of Perm. Datum
OTHER              .         <DescLogPlotStart>   NEURALOG PLOT DEFINITION: 
OTHER_10           .         STARTTRACK_                   : 
OTHER_11           .         LEFTX_ 0.500000 inch          : 
OTHER_12           .         RIGHTX_ 2.485000 inch         : 
OTHER_13           .         SCALETYPE_ Linear             : 
OTHER_14           .         NUMCHARTDIVISIONS_ 10         : 
OTHER_15           .         CURVE_ CALI  0.000000   24.000000  (0,0,255)      Solid             2     N: 
OTHER_16           .         ENDTRACK_                     : 
OTHER_17           .         STARTTRACK_                   : 
OTHER_18           .         LEFTX_ 2.985000 inch          : 
OTHER_19           .         RIGHTX_ 4.985000 inch         : 
OTHER_2            .         PLOTDEFVERSION_ 3             : 
OTHER_20           .         SCALETYPE_ Linear             : 
OTHER_21           .         NUMCHARTDIVISIONS_ 10         : 
OTHER_22           .         CURVE_ DT    240.000000 40.000000  (0,131,131)    Solid             2     N: 
OTHER_23           .         ENDTRACK_                     : 
OTHER_24           .         <DescLogPlotEnd>              : 
OTHER_3            .         LASFILE_ C_\nds\projects\well 35-4-1\las\35-4-1-Composite Log DT.las: 
OTHER_4            .         DEPTHSCALE_ 2000.000000       : 
OTHER_5            .         RESOLUTION_ 200               : 
OTHER_6            .         DEPTHLABELFREQ_ 100.000000    : 
OTHER_7            .         HEAVYGRIDFREQ_ 50.000000      : 
OTHER_8            .         MEDIUMGRIDFREQ_ 25.000000     : 
OTHER_9            .         LIGHTGRIDFREQ_ 25.000000      : 
PDAT               .                                       : Permanent Datum
RUN                .         ONE                           : Run Number
Status             .         LOC                           : 
TLFamily_CALI      .         Caliper                       : 
TLFamily_DT        .         Compressional Slowness        : 
TLFamily_GR        .         Gamma Ray                     : 
TLFamily_MD        .         Measured Depth                : 
TLFamily_NPHI      .         Neutron Porosity              : 
TLFamily_RHOB      .         Bulk Density                  : 
Total_depth        .M        4940.0000                     : Total Depth
~Curve Information
#_______________________________________________________________________________
#
#LOGNAME           .UNIT     LOG_ID                        : DESCRIPTION
#_______________________________________________________________________________
MD                 .m                                      :  {F}
CALI               .IN                                     : Caliper {F}
DT                 .US/F                                   : Delta-T {F}
GR                 .GAPI                                   : Gamma Ray {F}
NPHI               .                                       : Neutron Porosity {F}
RHOB               .G/C3                                   : Bulk Density {F}
~Ascii
# ...
3762.4012  10.1241318 109.60316568 79.58602068 0.40918167 2.58937936
3762.5536  10.10256963 108.8987617 79.09357785 0.41821248 2.5918723 
3762.706   10.08471539 106.16179098 78.83294650000001 0.42572645 2.58137079
3762.8584  10.07203576 98.37763093 78.59697832000001 0.43176727 2.56270505
3763.0108  10.0651618 97.14130998 78.02353759 0.44177057 2.5456663 
3763.1632  10.06327276 97.93436656999999 76.69191446000001 0.44177057 2.53897877
3763.3156  10.06421131 96.53051229 74.33694345000001 0.41850997 2.54488572
3763.468   10.06565301 97.20654740000001 71.26248385 0.40279926 2.55773304
3763.6204  10.06628886 98.965073  68.43709002999999 0.3894015  2.56857483
3763.7728  10.06617879 102.17681096 67.1320477 0.39970073 2.57087972
3763.9252  10.06602075 105.02817199 68.23168526000001 0.40867828 2.56402026
3764.0776  10.06617206 105.41316217 71.58751039000001 0.41765582 2.53275696
3764.23    10.06625913 105.52359142 76.03689   0.42663337 2.5386876 
3764.3824  10.0655316 105.85233366 80.06084468 0.43428928 2.55425136
3764.5348  10.06396512 106.07730828 82.56232468 0.431457   2.55881348
3764.6872  10.06294088 106.30228291 83.20630077 0.42898817 2.55619406
3764.8396  10.06491969 106.52725753 82.24013569 0.42651935 2.57081782
3764.992   10.07206228 106.75     80.11718904 0.42405052 2.61550203
3765.1444  10.08457979 105.3867593 77.34259941000001 0.42227091 2.66887129
3765.2968  10.09994356 104.03691154 74.56628884 0.41714917 2.68928951
3765.4492  10.11371134 102.25     72.57259644 0.4183978  2.65377422
3765.6016  10.12158452 102.25     71.93576396 0.43552625 2.5825936 
3765.754   10.12146525 106.52385991 72.55500062999999 0.43551971 2.5223772 
3765.9064  10.11425818 110.75     73.51669504 0.4198121  2.50380177
3766.0588  10.10300256 110.75     75.43463511 0.40811671 2.51870949
3766.2112  10.0910576 108.73647225 72.77575757 0.40264131 2.53833756
3766.3636  10.08054553 107.23664141 68.31526237999999 0.38668662 2.5376763 
3766.516   10.07184263 105.75     65.05786337000001 0.39248384 2.54691912
3766.6684  10.0640775 107.11171824 64.61992664 0.43121716 2.54836773
3766.8208  10.05604291 108.46156599 66.34243675 0.43421979 2.54661264
3766.9732  10.04694781 110.25     68.67884395 0.42645247 2.54672355
3767.1256  10.03678055 110.25     71.03404485999999 0.42807597 2.54985901
3767.278   10.02631442 107.73765639 73.89568831 0.42261492 2.55312166
3767.4304  10.01682631 105.25     77.26473841000001 0.42173954 2.55211228
3767.5828  10.00962174 105.25     79.57556108 0.41862738 2.54446463
3767.7352  10.00542298 110.25     78.98143604000001 0.41578769 2.53128362
3767.8876  10.00398249 110.25     75.51915887 0.41411961 2.5167756 
3768.04    10.0042131 110.75229956 71.14926171 0.41039691 2.50606583
3768.1924  10.00485999 111.05226573 67.49743429999999 0.4094945  2.50284964
3768.3448  10.00522762 111.35223189 64.54955178 0.4167442  2.50754784
3768.4972  10.00539929 111.65219806 61.91135408 0.42547213 2.51717917
3768.6496  10.00581875 111.95216423 60.18090866 0.43179846 2.52659646
3768.802   10.00640776 112.25     60.37087296 0.44031497 2.53110664
3768.9544  10.00632414 105.75     62.65455943 0.44587868 2.5288521 
3769.1068  10.00484445 105.75     66.39909109 0.44676852 2.52172081
3769.2592  10.00247152 106.82207706 70.88469945 0.44701817 2.51427049
3769.4116  10.0015891 107.62198684 75.07370011 0.44667221 2.51089548
3769.564   10.00559762 108.42189662 77.33980896 0.44844414 2.51332741
3769.7164  10.01702516 109.75     76.991882  0.44626584 2.52001   
3769.8688  10.03616776 109.75     75.88121187 0.43900153 2.52811654
3770.0212  10.06143812 109.75     76.42562998 0.43137062 2.53641146
3770.1736  10.090923  109.75     77.82885245999999 0.4223192  2.54671829
3770.326   10.12352879 109.75     76.46332189 0.4223192  2.56210965
3770.4784  10.15822982 95.75      71.33499547 0.36695387 2.58322271
3770.6308  10.19212919 95.75      66.97900127 0.32057357 2.60531809
3770.7832  10.21947408 95.75      70.70360499 0.32057357 2.6196771 
3770.9356  10.23329338 95.75      73.22839123999999 0.35823247 2.61887973
3771.088   10.22912042 95.75      76.25865631000001 0.38366886 2.60675518
3771.2404  10.20779064 96.75529692000001 78.20978158 0.40910525 2.57369217
3771.3928  10.17541312 97.86890459999999 78.00564435 0.44775561 2.55559131
3771.5452  10.13995423 98.72807161999999 75.59883910000001 0.44775561 2.56041653
3771.6976  10.10719252 99.75577106999999 71.90543411 0.42848317 2.5809584 
3771.85    10.07872731 100.75191446 68.26193336999999 0.41546572 2.60732289
3772.0024  10.05289943 100.37319634 65.89248588 0.40244828 2.62995253
3772.1548  10.0272005 99.90115509 65.35407001 0.38943083 2.63575315
3772.3072  10.00006123 99.62632840000001 66.47824072 0.37641339 2.61503431
3772.4596  9.97131778 99.06705633999999 68.51107168999999 0.36097257 2.57569539
3772.612   9.94157564 98.84633768 70.52688376 0.36097257 2.54233385
3772.7644  9.911749090000001 99.72431105 71.85979625 0.40738141 2.53569608
3772.9168  9.88300095 100.91638591 72.36437364 0.44625935 2.55629782
3773.0692  9.8567529  102.2022765 72.30100676000001 0.44625935 2.58910267
3773.2216  9.83416396 102.26929817 71.97928784 0.44110899 2.61840034
3773.374   9.815464929999999 101.34128823 71.61429489 0.43763019 2.6345356 
3773.5264  9.79982783 100.79618849 71.46220665 0.43415139 2.63294821
3773.6788  9.7858143  100.28127721 71.90856118000001 0.43067259 2.61559423
3773.8312  9.772125300000001 99.72817494 73.34226365000001 0.42719379 2.59194287
3773.9836  9.75835891 99.18823584 75.81137639000001 0.42371499 2.5716511 
3774.136   9.744810429999999 98.64829674000001 78.72248093 0.42023619 2.55591936
3774.2884  9.73174315 97.75      80.98539196 0.41675739 2.53991762
3774.4408  9.71876509 97.75      81.63631911 0.41327859 2.52262104
3774.5932  9.704945390000001 99.75422379 80.38481926999999 0.40979979 2.50955166
3774.7456  9.689699040000001 101.25405463 77.7999059 0.40632099 2.50655911
3774.898   9.67376679 102.75     74.8766011 0.40284219 2.51527671
3775.0504  9.65941857 102.14851348 72.48991143000001 0.39987531 2.53417373
3775.2028  9.649533590000001 101.54858115 71.08890203999999 0.40605449 2.55881098
3775.3552  9.646073250000001 100.94864881 70.81603158999999 0.41144102 2.58073715
3775.5076  9.64897249 100.34871648 71.69108256 0.41682755 2.59111133
3775.66    9.656212829999999 99.75      73.60101636 0.42221408 2.58811443
3775.8124  9.664930180000001 100.27600467 76.06209131 0.42680798 2.58160085
3775.9648  9.6729992  100.80094546 78.08843598 0.42330646 2.57118003
3776.1172  9.67971066 101.32588626 78.55979569 0.42025409 2.56215868
3776.2696  9.68559149 101.85082705 76.89094538000001 0.41720172 2.55725855
3776.422   9.69152631 102.37576784 73.54350189 0.41414936 2.55700304
3776.5744  9.697988459999999 103.25     69.91804653 0.41109699 2.56026436
3776.7268  9.70482335 103.25     67.53686392 0.40804462 2.56525895
3776.8792  9.711561619999999 100.84797639 67.15983457999999 0.40499226 2.57051307
3777.0316  9.71791069 99.04817937999999 68.38206932 0.40003822 2.57527916
3777.184   9.724045759999999 97.24838238 69.95739568 0.40290286 2.57947947
3777.3364  9.73050263 94.25      70.71064371999999 0.42226107 2.58349406
3777.4888  9.73771794 94.25      70.21777192 0.42196063 2.58759929
3777.6412  9.74548459 95.45050431999999 68.86908596000001 0.41624466 2.59158843
3777.7936  9.75263221 96.35040282 66.50622609 0.41571632 2.59485609
3777.946   9.757405009999999 97.25030132000001 66.5397827 0.41093353 2.59693489
3778.0984  9.75827647 98.75      66.50497829 0.40933894 2.59792174
3778.2508  9.754832439999999 98.75      65.77833868 0.40412482 2.59853779
3778.4032  9.747866119999999 96.95000476 65.1507786 0.40443427 2.59977581
3778.5556  9.738970950000001 95.600157  65.45522210999999 0.41648068 2.6021856 
3778.708   9.72957089 94.25      66.77929520000001 0.42410873 2.60538895
3778.8604  9.720544110000001 95.29964106 69.41211481000001 0.43293568 2.6081523 
3779.0128  9.71227157 96.34952264 74.29776936 0.4441528  2.60878387
3779.1652  9.704967099999999 97.75      81.45376323000001 0.44547651 2.60568834
