~Version
 VERS              .         3.0                           : CWLS LOG ASCII STANDARD - VERSION 3.0
 WRAP              .         NO                            : ONE LINE PER DEPTH STEP
 DLM               .         SPACE                         : DELIMITING CHARACTER(SPACE TAB OR COMMA)
~Well Information
#_______________________________________________________________________________
#
#PARAMETER_NAME    .UNIT     VALUE                         : DESCRIPTION
#_______________________________________________________________________________
STRT               .m        400                           : First reference value
STOP               .m        4939.996                      : Last reference value
STEP               .m        0.1524                        : Step increment
NULL               .         -9999                         : Missing value
COMP               .                                       : Company
WELL               .         35-4-1                        : Well name
FLD                .                                       : Field
LOC                .                                       : Location
SRVC               .                                       : Service Company
CTRY               .                                       : Country
DATE               .                                       : Service Date
X                  .                                       : X or East-West coordinate
Y                  .                                       : Y or North South coordinate
GDAT               .                                       : Geodetic Datum
HZCS               .                                       : Horizontal Co-ordinate System
API                .                                       : API NUMBER
CNTY               .                                       : COUNTY
COUNTRY            .                                       : COUNTRY
ORIGINALWELLNAME   .         35-4-1-Composite Log NPHI     : 
STAT               .                                       : STATE
WSTA               .         LOC                           : Well status
TVD                .         NO                            : TVD flag
UWI                .                                       : UWI NUMBER
~Parameter Information Block
#_______________________________________________________________________________
#
#PARAMETER_NAME    .UNIT     VALUE                         : DESCRIPTION
#_______________________________________________________________________________
SET                .         Dataset                       : 
E                  .M        -9999.5000                    : E (Stretch Coefficient Of The Cable)
EPD                .M        -9999.5000                    : Elevation Of Perm. Datum
OTHER              .         <DescLogPlotStart>   NEURALOG PLOT DEFINITION: 
OTHER_10           .         STARTTRACK_                   : 
OTHER_11           .         LEFTX_ 0.500000 inch          : 
OTHER_12           .         RIGHTX_ 2.485000 inch         : 
OTHER_13           .         SCALETYPE_ Linear             : 
OTHER_14           .         NUMCHARTDIVISIONS_ 10         : 
OTHER_15           .         CURVE_ CALI  0.000000   24.000000  (0,0,255)      Solid             2     N: 
OTHER_16           .         ENDTRACK_                     : 
OTHER_17           .         STARTTRACK_                   : 
OTHER_18           .         LEFTX_ 2.985000 inch          : 
OTHER_19           .         RIGHTX_ 4.985000 inch         : 
OTHER_2            .         PLOTDEFVERSION_ 3             : 
OTHER_20           .         SCALETYPE_ Linear             : 
OTHER_21           .         NUMCHARTDIVISIONS_ 10         : 
OTHER_22           .         CURVE_ DT    240.000000 40.000000  (0,131,131)    Solid             2     N: 
OTHER_23           .         ENDTRACK_                     : 
OTHER_24           .         <DescLogPlotEnd>              : 
OTHER_3            .         LASFILE_ C_\nds\projects\well 35-4-1\las\35-4-1-Composite Log DT.las: 
OTHER_4            .         DEPTHSCALE_ 2000.000000       : 
OTHER_5            .         RESOLUTION_ 200               : 
OTHER_6            .         DEPTHLABELFREQ_ 100.000000    : 
OTHER_7            .         HEAVYGRIDFREQ_ 50.000000      : 
OTHER_8            .         MEDIUMGRIDFREQ_ 25.000000     : 
OTHER_9            .         LIGHTGRIDFREQ_ 25.000000      : 
PDAT               .                                       : Permanent Datum
RUN                .         ONE                           : Run Number
Status             .         LOC                           : 
TLFamily_CALI      .         Caliper                       : 
TLFamily_DT        .         Compressional Slowness        : 
TLFamily_GR        .         Gamma Ray                     : 
TLFamily_MD        .         Measured Depth                : 
TLFamily_NPHI      .         Neutron Porosity              : 
TLFamily_RHOB      .         Bulk Density                  : 
Total_depth        .M        4940.0000                     : Total Depth
~Curve Information
#_______________________________________________________________________________
#
#LOGNAME           .UNIT     LOG_ID                        : DESCRIPTION
#_______________________________________________________________________________
MD                 .m                                      :  {F}
CALI               .IN                                     : Caliper {F}
DT                 .US/F                                   : Delta-T {F}
GR                 .GAPI                                   : Gamma Ray {F}
NPHI               .                                       : Neutron Porosity {F}
RHOB               .G/C3                                   : Bulk Density {F}
~Ascii
# ...
2544.7252  17.90221918 109.11148656 97.26729057 0.43279302 2.36723733
2544.8776  17.88974029 108.54905  97.60620471 0.43578554 2.38968468
2545.03    17.87356999 107.98661344 97.68304147000001 0.43578554 2.38789576
2545.1824  17.86351758 107.42417687 97.28553795000001 0.44625935 2.37436881
2545.3348  17.86154071 106.86174031 96.53327127999999 0.42381546 2.37004115
2545.4872  17.86221406 106.29930374 95.85530838 0.42381546 2.37552282
2545.6396  17.85787643 105.73686718 95.6824481 0.41713797 2.37992534
2545.792   17.84505672 104.75     96.13413593 0.4126492  2.37937801
2545.9444  17.82675098 104.75     96.92670313000001 0.40885287 2.37786561
2546.0968  17.80996115 105.31035401 97.62023296 0.41748823 2.37802369
2546.2492  17.79999086 105.76030326 97.95164904000001 0.42496952 2.37903684
2546.4016  17.79797801 106.25     98.05494736 0.43245081 2.379959  
2546.554   17.80071738 106.88809163 98.32212809000001 0.4399321  2.38120087
2546.7064  17.80410659 107.58801269 99.08755681 0.44625935 2.38305338
2546.8588  17.80554757 108.28793374 100.30958498 0.43071577 2.38516989
2547.0112  17.8049762 108.9878548 101.50469899 0.41724944 2.38730278
2547.1636  17.80375026 109.75     101.94268456 0.40137157 2.38967858
2547.316   17.8030632 110.25     101.07633253 0.40137157 2.39067408
2547.4684  17.80306319 110.25     98.91291631 0.41390458 2.39078742
2547.6208  17.80339128 109.37912764 96.09968879 0.42078736 2.39042342
2547.7732  17.80364685 108.67920658 93.68635190000001 0.42767015 2.39008041
2547.9256  17.80370154 107.97928552 92.57611342 0.43578554 2.3900405 
2548.078   17.80362891 106.75     93.08996861 0.43578554 2.3902374 
2548.2304  17.80352645 106.75     94.8530275 0.39089776 2.39038023
2548.3828  17.80352645 106.82461237 97.0229887 0.41058615 2.39024247
2548.5352  17.80352645 106.8846056 98.75959417 0.42764349 2.38980127
2548.6876  17.80352645 106.94459884 99.56062138999999 0.44775561 2.38913702
2548.84    17.80352645 107.00459207 99.36962948999999 0.44775561 2.38828059
2548.9924  17.80352645 107.0645853 98.46017098999999 0.40885287 2.3871269 
2549.1448  17.80362891 107.12457854 97.25205071000001 0.41507023 2.38559523
2549.2972  17.80370154 107.18457177 96.17511462 0.42045676 2.38380949
2549.4496  17.80364685 107.25     95.5863536 0.42680798 2.38215363
2549.602   17.80339128 107.70465198 95.68486042000001 0.42680798 2.38105604
2549.7544  17.80316565 108.20459559 96.47219964999999 0.40828106 2.38070864
2549.9068  17.80323829 108.70453921 97.73091414 0.39810651 2.38095063
2550.0592  17.80387066 109.20448282 99.093706  0.38793196 2.38144073
2550.2116  17.80473857 109.75     100.21822194 0.37593516 2.38194364
2550.364   17.80490922 105.75     100.91303337 0.37593516 2.38254756
2550.5164  17.8036254 105.75     101.13276435 0.38492614 2.38358279
2550.6688  17.80135392 106.49510872 100.90699095 0.39239401 2.38531642
2550.8212  17.80008405 107.09504106 100.28321857 0.39239401 2.38762308
2550.9736  17.80238782 107.69497339 99.32216166000001 0.38260057 2.38987458
2551.126   17.80987621 108.29490573 98.17139412 0.37601704 2.39117928
2551.2784  17.8223037 108.89483806 97.07639093 0.3694335  2.39087014
2551.4308  17.83801656 109.75     96.30797173000001 0.35947631 2.38891933
2551.5832  17.85520764 109.75     96.06132916 0.35947631 2.38607115
2551.7356  17.87275206 109.43512164 96.38281902 0.37060519 2.38351018
2551.888   17.88994313 109.2351442 97.17728866 0.37779667 2.38225282
2552.0404  17.905656  109.03516675 98.2731793 0.3860392  2.38269959
2552.1928  17.91808349 108.83518931 99.42886446 0.3963287  2.38453264
2552.3452  17.92557188 108.63521186 100.43575451 0.39748659 2.38701901
2552.4976  17.92787565 108.43523442 101.10999679 0.39753677 2.38949575
2552.65    17.92660577 108.23525698 101.32729355 0.39974007 2.39161469
2552.8024  17.9243343 108.03527953 101.05019723 0.39921751 2.39332956
2552.9548  17.92294801 107.75     100.27584462 0.39322    2.39471223
2553.1072  17.92304604 107.75     99.04404828 0.38573689 2.39571842
2553.2596  17.92396864 108.41077089 97.49654463 0.38066704 2.39621339
2553.412   17.92485658 108.83072352 95.99229453 0.3730851  2.39619053
2553.5644  17.92515484 109.25067616 95.03410110999999 0.3692489  2.39589871
2553.7168  17.92485658 109.67062879 95.03494295 0.37712231 2.39581619
2553.8692  17.92396864 110.09058143 95.94665388 0.3876461  2.39639704
2554.0216  17.92304604 110.51053406 97.16760773999999 0.39347363 2.39766746
2554.174   17.92294801 111.25     97.85407082 0.40326223 2.39915197
2554.3264  17.9243343 111.25     97.51112128 0.41034913 2.39992528
2554.4788  17.92670823 110.38268006 96.37399187 0.39066134 2.39920684
2554.6312  17.92805075 109.682759 95.29268558 0.37360399 2.39677319
2554.7836  17.92569227 108.98283794 95.09386961 0.35349127 2.39314444
2554.936   17.91794831 107.75     95.96444633999999 0.35349127 2.38932117
2555.0884  17.90519274 107.75     97.33481552000001 0.35947631 2.3862335 
2555.2408  17.88937743 108.49307877 98.32283513 0.36695761 2.38426054
2555.3932  17.87280078 109.0930111 98.39155216 0.36695761 2.38328462
2555.5456  17.85653699 109.75     97.69319828 0.36845387 2.38318424
2555.698   17.84017286 109.53284969 96.88626097 0.36845387 2.38433008
2555.8504  17.82344956 109.29287676 96.63137728 0.35049875 2.38756911
2556.0028  17.80780795 109.05290382 97.16771248000001 0.33254364 2.39352162
2556.1552  17.79691106 108.81293089 98.22711508 0.33254364 2.40177664
2556.3076  17.79528885 108.57295796 99.24265212 0.35498753 2.41060084
2556.46    17.80551927 108.33298502 99.69118166 0.35498753 2.4176113 
2556.6124  17.82548162 108.09301209 99.35982285 0.36396509 2.42101679
2556.7648  17.8482563 107.75     98.39410698 0.3744389  2.4206026 
2556.9172  17.86463591 107.75     97.23717674 0.3744389  2.41770416
2557.0696  17.8680322 108.69226678 96.34340134 0.38341646 2.41425311
2557.222   17.85836739 109.29219912 96.03183713 0.38341646 2.41160849
2557.3744  17.8423204 109.89213145 96.35767758 0.38640898 2.41006053
2557.5268  17.82956641 110.75     97.12052226 0.37294264 2.4091912 
2557.6792  17.82741468 110.75     98.0042182 0.37294264 2.40860462
2557.8316  17.83659846 109.90226439 98.75273511 0.36546135 2.40842191
2557.984   17.85236885 109.36232529 99.27185163999999 0.36546135 2.4089643 
2558.1364  17.86782128 108.82238619 99.59559317999999 0.34750623 2.4103072 
2558.2888  17.87628738 108.28244708 99.81829485999999 0.3415212  2.41189506
2558.4412  17.8739576 107.74250798 99.91220074 0.3415212  2.4128206 
2558.5936  17.86036209 107.20256888 99.74166479 0.31907731 2.41240286
2558.746   17.83834512 106.25     99.11243232 0.31907731 2.41071276
2558.8984  17.81533677 106.25     97.9602677 0.32356608 2.40852421
2559.0508  17.80187015 106.75970366 96.47529697 0.3265586  2.4069544 
2559.2032  17.80452083 107.17215714 95.10935765000001 0.3265586  2.40681716
2559.3556  17.81871979 107.58461062 94.32688825 0.33553616 2.40823328
2559.508   17.82742814 107.9970641 94.33689885 0.33553616 2.41058494
2559.6604  17.81072414 108.40951758 94.90256049 0.33104738 2.41252389
2559.8128  17.76555305 108.82197106 95.47484824 0.32955112 2.41227041
2559.9652  17.71810975 109.23442454 95.5289461 0.32955112 2.40804155
2560.1176  17.71740336 109.64687802 94.91759553999999 0.32805486 2.39835463
2560.27    17.80888921 110.0593315 93.97986198 0.32805486 2.38262438
2560.4224  18.00192058 110.47178498 93.32336995999999 0.30261845 2.36178985
2560.5748  18.25486329 110.88423846 93.43748479 0.34301746 2.33869097
2560.7272  18.49136085 111.29669194 94.39315709 0.34301746 2.31780887
2560.8796  18.63870468 111.75     95.77339204 0.36995012 2.30401731
2561.032   18.66359257 111.4025309 96.90262193 0.36995012 2.30077985
2561.1844  18.58268066 111.01686011 97.26080505 0.41633416 2.30863604
2561.3368  18.44422632 110.63118933 96.77421751999999 0.41788841 2.3248835 
2561.4892  18.29668375 110.24551854 95.91550813000001 0.41923504 2.34473745
2561.6416  18.16734203 109.85984775 95.40828562999999 0.42082294 2.36341438
2561.794   18.06084567 109.47417697 95.74418233 0.42082294 2.37797453
