~Version
 VERS              .         3.0                           : CWLS LOG ASCII STANDARD - VERSION 3.0
 WRAP              .         NO                            : ONE LINE PER DEPTH STEP
 DLM               .         SPACE                         : DELIMITING CHARACTER(SPACE TAB OR COMMA)
~Well Information
#_______________________________________________________________________________
#
#PARAMETER_NAME    .UNIT     VALUE                         : DESCRIPTION
#_______________________________________________________________________________
STRT               .m        400                           : First reference value
STOP               .m        4939.996                      : Last reference value
STEP               .m        0.1524                        : Step increment
NULL               .         -9999                         : Missing value
COMP               .                                       : Company
WELL               .         35-4-1                        : Well name
FLD                .                                       : Field
LOC                .                                       : Location
SRVC               .                                       : Service Company
CTRY               .                                       : Country
DATE               .                                       : Service Date
X                  .                                       : X or East-West coordinate
Y                  .                                       : Y or North South coordinate
GDAT               .                                       : Geodetic Datum
HZCS               .                                       : Horizontal Co-ordinate System
API                .                                       : API NUMBER
CNTY               .                                       : COUNTY
COUNTRY            .                                       : COUNTRY
ORIGINALWELLNAME   .         35-4-1-Composite Log NPHI     : 
STAT               .                                       : STATE
WSTA               .         LOC                           : Well status
TVD                .         NO                            : TVD flag
UWI                .                                       : UWI NUMBER
~Parameter Information Block
#_______________________________________________________________________________
#
#PARAMETER_NAME    .UNIT     VALUE                         : DESCRIPTION
#_______________________________________________________________________________
SET                .         Dataset                       : 
E                  .M        -9999.5000                    : E (Stretch Coefficient Of The Cable)
EPD                .M        -9999.5000                    : Elevation Of Perm. Datum
OTHER              .         <DescLogPlotStart>   NEURALOG PLOT DEFINITION: 
OTHER_10           .         STARTTRACK_                   : 
OTHER_11           .         LEFTX_ 0.500000 inch          : 
OTHER_12           .         RIGHTX_ 2.485000 inch         : 
OTHER_13           .         SCALETYPE_ Linear             : 
OTHER_14           .         NUMCHARTDIVISIONS_ 10         : 
OTHER_15           .         CURVE_ CALI  0.000000   24.000000  (0,0,255)      Solid             2     N: 
OTHER_16           .         ENDTRACK_                     : 
OTHER_17           .         STARTTRACK_                   : 
OTHER_18           .         LEFTX_ 2.985000 inch          : 
OTHER_19           .         RIGHTX_ 4.985000 inch         : 
OTHER_2            .         PLOTDEFVERSION_ 3             : 
OTHER_20           .         SCALETYPE_ Linear             : 
OTHER_21           .         NUMCHARTDIVISIONS_ 10         : 
OTHER_22           .         CURVE_ DT    240.000000 40.000000  (0,131,131)    Solid             2     N: 
OTHER_23           .         ENDTRACK_                     : 
OTHER_24           .         <DescLogPlotEnd>              : 
OTHER_3            .         LASFILE_ C_\nds\projects\well 35-4-1\las\35-4-1-Composite Log DT.las: 
OTHER_4            .         DEPTHSCALE_ 2000.000000       : 
OTHER_5            .         RESOLUTION_ 200               : 
OTHER_6            .         DEPTHLABELFREQ_ 100.000000    : 
OTHER_7            .         HEAVYGRIDFREQ_ 50.000000      : 
OTHER_8            .         MEDIUMGRIDFREQ_ 25.000000     : 
OTHER_9            .         LIGHTGRIDFREQ_ 25.000000      : 
PDAT               .                                       : Permanent Datum
RUN                .         ONE                           : Run Number
Status             .         LOC                           : 
TLFamily_CALI      .         Caliper                       : 
TLFamily_DT        .         Compressional Slowness        : 
TLFamily_GR        .         Gamma Ray                     : 
TLFamily_MD        .         Measured Depth                : 
TLFamily_NPHI      .         Neutron Porosity              : 
TLFamily_RHOB      .         Bulk Density                  : 
Total_depth        .M        4940.0000                     : Total Depth
~Curve Information
#_______________________________________________________________________________
#
#LOGNAME           .UNIT     LOG_ID                        : DESCRIPTION
#_______________________________________________________________________________
MD                 .m                                      :  {F}
CALI               .IN                                     : Caliper {F}
DT                 .US/F                                   : Delta-T {F}
GR                 .GAPI                                   : Gamma Ray {F}
NPHI               .                                       : Neutron Porosity {F}
RHOB               .G/C3                                   : Bulk Density {F}
~Ascii
# ...
2303.3236  22.36172614 134.61267665 102.25770814 0.44625935 -9999     
2303.476   22.30687721 133.11284581 102.73471309 0.44625935 -9999     
2303.6284  22.24716253 131.61301498 104.42498985 0.44925187 -9999     
2303.7808  22.25571549 129.75     106.43890501 0.44925187 -9999     
2303.9332  22.37978921 129.75     107.78331649 0.44925187 -9999     
2304.0856  22.54963371 132.51830141 107.93135241 0.44925187 -9999     
2304.238   22.56566759 134.09312379 107.04328122 0.44925187 -9999     
2304.3904  22.20626105 135.66794617 105.77537752 0.44925187 -9999     
2304.5428  21.41619212 137.24276855 104.80825824 0.44925187 -9999     
2304.6952  20.40815864 138.81759093 104.462051 0.44925187 -9999     
2304.8476  19.58385727 140.25     104.57305309 0.44925187 -9999     
2305       19.29003319 136.32488987 104.66001745 0.44925187 -9999     
2305.1524  19.60336955 132.72529586 104.25892096 0.44925187 -9999     
2305.3048  20.29903987 129.12570185 103.23017475 0.44925187 -9999     
2305.4572  21.01872448 125.52610784 101.87837902 0.44925187 -9999     
2305.6096  21.48528708 122.25     100.79758349 0.44925187 -9999     
2305.762   21.59631517 120.25     100.54308229 0.44925187 -9999     
2305.9144  21.36915367 120.44948738 101.30616597 0.44925187 -9999     
2306.0668  20.85257715 123.02855804 102.82304667 0.44925187 -9999     
2306.2192  20.12494086 125.57133426 104.59831216 0.44925187 -9999     
2306.3716  19.69134296 126.99863134 106.22681466 0.44925187 -9999     
2306.524   18.57136542 125.21594707 107.59850235 0.44925187 -9999     
2306.6764  18.35791142 122.61840707 108.8223376 0.44925187 -9999     
2306.8288  19.37385724 121.00012895 109.99799619 0.44925187 -9999     
2306.9812  20.98041729 118.48168607 111.04358746 0.44925187 -9999     
2307.1336  22.18101789 116.91714129 111.74822343 0.41334165 -9999     
2307.286   22.50910422 118.62525055 111.99060026 0.41334165 -9999     
2307.4384  22.23906745 120.56094993 111.8831877 0.44775561 -9999     
2307.5908  21.87925817 122.32643953 111.69310351 0.44775561 -9999     
2307.7432  21.67629088 124.06647175 111.57314936 0.44775561 -9999     
2307.8956  21.63650618 125.95936286 111.3694471 0.43839849 -9999     
2308.048   21.75086771 128.73839948 110.68546889 0.43211421 -9999     
2308.2004  22.00817946 128.75     109.17289735 0.42680798 -9999     
2308.3528  22.28519981 124.77075019 106.86909348 0.44625935 -9999     
2308.5052  22.43106529 121.97106596 104.26688168 0.44625935 -9999     
2308.6576  22.4279973 119.17138173 102.03776748 0.44775561 -9999     
2308.81    22.37934302 114.75     100.62292264 0.44775561 -9999     
2308.9624  22.34879777 114.75     99.99023197 0.44775561 -9999     
2309.1148  22.32761009 126.75     99.74303849 0.44775561 -9999     
2309.2672  22.33729009 126.75     99.51570601 0.44775561 -9999     
2309.4196  22.40368925 132.25     99.29823885 0.44775561 -9999     
2309.572   22.42326816 131.7608837 99.44053875 0.44775561 -9999     
2309.7244  22.28419997 131.31093445 100.32437937 0.44775561 -9999     
2309.8768  22.1432639 130.8609852 101.97913523 0.44775561 -9999     
2310.0292  22.30787241 130.41103595 103.95831351 0.44775561 -9999     
2310.1816  22.64743426 129.9610867 105.5819179 0.44775561 -9999     
2310.334   22.44347718 129.25     106.34833689 0.44775561 -9999     
2310.4864  21.22086503 129.25     106.20958712 0.44775561 -9999     
2310.6388  19.61489704 133.50840705 105.5171263 0.44027431 -9999     
2310.7912  18.94540443 136.50806872 104.75277653 0.44027431 -9999     
2310.9436  19.7955324 139.25     104.22957965 0.42680798 -9999     
2311.096   21.31518871 110.75     103.99420725 0.42680798 -9999     
2311.2484  22.14956156 110.75     103.9168708 0.44326683 -9999     
2311.4008  21.84542732 114.32564095 103.86451365 0.41783042 -9999     
2311.5532  21.11410294 116.84535676 103.75845729 0.41783042 -9999     
2311.7056  20.85247074 119.36507256 103.54709043 0.43119754 -9999     
2311.858   21.24236662 121.88478837 103.16629968 0.44017509 -9999     
2312.0104  21.75857866 124.40450418 102.57056006 0.44775561 -9999     
2312.1628  21.79400649 126.92421998 101.83467287 0.44464324 -9999     
2312.3152  21.15270117 129.44393579 101.22187335 0.44194997 -9999     
2312.4676  20.16003803 131.75     101.12716256 0.43877805 -9999     
2312.62    19.45686986 130.23146256 101.86791556 0.43877805 -9999     
2312.7724  19.53142263 128.83162044 103.46505609 0.44775561 -9999     
2312.9248  20.30055228 127.43177833 105.5430135 0.44775561 -9999     
2313.0772  21.23107481 126.03193621 107.44470081 0.44775561 -9999     
2313.2296  21.94188748 124.75     108.50807918 0.40137157 -9999     
2313.382   22.17222518 129.75     108.38904991 0.40137157 -9999     
2313.5344  22.44856763 129.75     107.19407244 0.44775561 -9999     
2313.6868  22.82190458 129.04139325 105.44634286 0.42960025 -9999     
2313.8392  21.43454592 128.54144963 103.81045543 0.41388954 -9999     
2313.9916  18.77056367 128.04150602 102.82115544 0.39538653 -9999     
2314.144   17.40690315 127.25     102.6670172 0.39538653 -9999     
2314.2964  17.80636424 127.25     103.18442266 0.44177057 -9999     
2314.4488  18.29285263 132.25     103.9984099 0.44384546 -9999     
2314.6012  18.21415456 132.25     104.70402571 0.44564097 -9999     
2314.7536  18.07663589 127.35067924 105.03926548 0.44775561 -9999     
2314.906   18.21807194 124.55099501 104.89756313 0.44775561 -9999     
2315.0584  18.87414135 121.75131078 104.26559381 0.44925187 -9999     
2315.2108  19.9033719 118.25     103.16271232 0.44925187 -9999     
2315.3632  20.66592268 118.37178049 101.65559648 0.44925187 -9999     
2315.5156  21.19344002 119.20977641 99.91047923000001 0.44476309 -9999     
2315.668   21.91833939 120.60732236 98.2225384 0.44476309 -9999     
2315.8204  22.16429752 120.29098211 96.98005268999999 0.4298005  -9999     
2315.9728  21.0669463 122.46237586 96.54090942000001 0.44775561 -9999     
2316.1252  19.34953435 120.9694503 97.08574382 0.44775561 -9999     
2316.2776  18.26903143 111.53923846 98.5521971 0.40885287 -9999     
2316.43    17.83697337 111.35044068 100.65514364 0.40885287 -9999     
2316.5824  17.57729211 113.83655109 102.97660548 0.44476309 -9999     
2316.7348  17.78610687 114.04942912 105.09812532 0.41334165 -9999     
2316.8872  18.5624425 115.90239514 106.72153631 0.41334165 -9999     
2317.0396  19.04649603 116.76704259 107.73386954 0.42830424 -9999     
2317.192   19.18114984 118.72468014 108.23460138 0.42830424 -9999     
2317.3444  20.08233453 118.86101066 108.49666663 0.37892768 -9999     
2317.4968  21.08190893 118.73305441 108.865126 0.38878326 -9999     
2317.6492  19.92767556 118.99142814 109.6125888 0.39731193 -9999     
2317.8016  17.34018962 119.09141686 110.8019712 0.40735661 -9999     
2317.954   16.6504527 119.25     112.26447553 0.40463379 -9999     
2318.1064  18.26516431 119.25     113.61793409 0.36300741 -9999     
2318.2588  19.7163898 117.34132916 114.44895842 0.37045432 -9999     
2318.4112  20.43452448 115.99148141 114.48973647 0.3897123  -9999     
2318.5636  21.40668408 114.75     113.74643536 0.39934058 -9999     
2318.716   22.13737323 119.61071366 112.47587092 0.40205973 -9999     
2318.8684  21.94887691 124.11020617 111.09515925 0.38429294 -9999     
2319.0208  21.62203005 129.75     109.98039668 0.3661679  -9999     
2319.1732  21.62816951 129.75     109.32941284 0.37211548 -9999     
2319.3256  21.56232221 125.2967459 109.16535699 0.38636239 -9999     
2319.478   21.59013575 122.74703348 109.32244527 0.39614295 -9999     
2319.6304  22.02730181 120.19732106 109.50006582 0.43322784 -9999     
2319.7828  22.40888578 117.64760863 109.26802143 0.4479264  -9999     
2319.9352  22.45978684 115.09789621 108.20123442 0.44021418 -9999     
2320.0876  22.45731331 112.75     106.06152302 0.45412597 -9999     
2320.24    22.16211784 118.79257269 103.03200225 0.44492933 -9999     
2320.3924  21.15139922 124.39194115 99.75100978 0.41034913 -9999     
2320.5448  20.19398059 129.9913096 97.06643131 0.4233168  -9999     
