~Version
 VERS              .         3.0                           : CWLS LOG ASCII STANDARD - VERSION 3.0
 WRAP              .         NO                            : ONE LINE PER DEPTH STEP
 DLM               .         SPACE                         : DELIMITING CHARACTER(SPACE TAB OR COMMA)
~Well Information
#_______________________________________________________________________________
#
#PARAMETER_NAME    .UNIT     VALUE                         : DESCRIPTION
#_______________________________________________________________________________
STRT               .m        400                           : First reference value
STOP               .m        4939.996                      : Last reference value
STEP               .m        0.1524                        : Step increment
NULL               .         -9999                         : Missing value
COMP               .                                       : Company
WELL               .         35-4-1                        : Well name
FLD                .                                       : Field
LOC                .                                       : Location
SRVC               .                                       : Service Company
CTRY               .                                       : Country
DATE               .                                       : Service Date
X                  .                                       : X or East-West coordinate
Y                  .                                       : Y or North South coordinate
GDAT               .                                       : Geodetic Datum
HZCS               .                                       : Horizontal Co-ordinate System
API                .                                       : API NUMBER
CNTY               .                                       : COUNTY
COUNTRY            .                                       : COUNTRY
ORIGINALWELLNAME   .         35-4-1-Composite Log NPHI     : 
STAT               .                                       : STATE
WSTA               .         LOC                           : Well status
TVD                .         NO                            : TVD flag
UWI                .                                       : UWI NUMBER
~Parameter Information Block
#_______________________________________________________________________________
#
#PARAMETER_NAME    .UNIT     VALUE                         : DESCRIPTION
#_______________________________________________________________________________
SET                .         Dataset                       : 
E                  .M        -9999.5000                    : E (Stretch Coefficient Of The Cable)
EPD                .M        -9999.5000                    : Elevation Of Perm. Datum
OTHER              .         <DescLogPlotStart>   NEURALOG PLOT DEFINITION: 
OTHER_10           .         STARTTRACK_                   : 
OTHER_11           .         LEFTX_ 0.500000 inch          : 
OTHER_12           .         RIGHTX_ 2.485000 inch         : 
OTHER_13           .         SCALETYPE_ Linear             : 
OTHER_14           .         NUMCHARTDIVISIONS_ 10         : 
OTHER_15           .         CURVE_ CALI  0.000000   24.000000  (0,0,255)      Solid             2     N: 
OTHER_16           .         ENDTRACK_                     : 
OTHER_17           .         STARTTRACK_                   : 
OTHER_18           .         LEFTX_ 2.985000 inch          : 
OTHER_19           .         RIGHTX_ 4.985000 inch         : 
OTHER_2            .         PLOTDEFVERSION_ 3             : 
OTHER_20           .         SCALETYPE_ Linear             : 
OTHER_21           .         NUMCHARTDIVISIONS_ 10         : 
OTHER_22           .         CURVE_ DT    240.000000 40.000000  (0,131,131)    Solid             2     N: 
OTHER_23           .         ENDTRACK_                     : 
OTHER_24           .         <DescLogPlotEnd>              : 
OTHER_3            .         LASFILE_ C_\nds\projects\well 35-4-1\las\35-4-1-Composite Log DT.las: 
OTHER_4            .         DEPTHSCALE_ 2000.000000       : 
OTHER_5            .         RESOLUTION_ 200               : 
OTHER_6            .         DEPTHLABELFREQ_ 100.000000    : 
OTHER_7            .         HEAVYGRIDFREQ_ 50.000000      : 
OTHER_8            .         MEDIUMGRIDFREQ_ 25.000000     : 
OTHER_9            .         LIGHTGRIDFREQ_ 25.000000      : 
PDAT               .                                       : Permanent Datum
RUN                .         ONE                           : Run Number
Status             .         LOC                           : 
TLFamily_CALI      .         Caliper                       : 
TLFamily_DT        .         Compressional Slowness        : 
TLFamily_GR        .         Gamma Ray                     : 
TLFamily_MD        .         Measured Depth                : 
TLFamily_NPHI      .         Neutron Porosity              : 
TLFamily_RHOB      .         Bulk Density                  : 
Total_depth        .M        4940.0000                     : Total Depth
~Curve Information
#_______________________________________________________________________________
#
#LOGNAME           .UNIT     LOG_ID                        : DESCRIPTION
#_______________________________________________________________________________
MD                 .m                                      :  {F}
CALI               .IN                                     : Caliper {F}
DT                 .US/F                                   : Delta-T {F}
GR                 .GAPI                                   : Gamma Ray {F}
NPHI               .                                       : Neutron Porosity {F}
RHOB               .G/C3                                   : Bulk Density {F}
~Ascii
# ...
3271.5208  12.66301498 104.75     53.46390012 0.33263677 2.52305722
3271.6732  12.66520792 103.72501533 54.76036917 0.34102627 2.52717105
3271.8256  12.6633151 102.75     55.4971685 0.33671773 2.52968544
3271.978   12.65563783 102.75     55.57377958 0.34251321 2.53123712
3272.1304  12.64235445 102.23451145 55.07072426 0.35937113 2.53310533
3272.2828  12.62546264 101.85955374 54.11643457 0.36918211 2.53609235
3272.4352  12.6076469 101.48459604 52.87526879 0.36841078 2.53962371
3272.5876  12.59087009 101.10963833 51.53761181 0.38281311 2.54155205
3272.74    12.57567896 100.73468062 50.3512179 0.38437788 2.53932964
3272.8924  12.56142225 100.25     49.60124722 0.3552049  2.53200405
3273.0448  12.54712911 100.25     49.41657721 0.33395558 2.52147685
3273.1972  12.53224489 100.3780385 49.73049724 0.33110873 2.51197906
3273.3496  12.51681931 100.45303004 50.26659947 0.32646161 2.50778976
3273.502   12.50126826 100.52802159 50.71754382 0.32384204 2.51070986
3273.6544  12.48602657 100.60301313 50.93911058 0.32011727 2.51899334
3273.8068  12.47128298 100.67800467 51.0276713 0.31608479 2.52854   
3273.9592  12.4568333 100.75     51.15900454 0.31608479 2.53532939
3274.1116  12.44210966 100.50043919 51.331868  0.31758105 2.5375919 
3274.264   12.42650586 100.26046626 51.30621572 0.31758105 2.53617909
3274.4164  12.40997441 100.02049332 50.83851829 0.32206983 2.53349348
3274.5688  12.3935489 99.78052039000001 50.0334256 0.32805486 2.53172472
3274.7212  12.37914069 99.54054745000001 49.46562494 0.32805486 2.53168724
3274.8736  12.36880614 99.30057452 49.8423259 0.3340399  2.53277982
3275.026   12.36362842 99.06060159 51.48997795 0.3340399  2.53385542
3275.1784  12.36309473 98.75      53.98024667 0.32805486 2.53418297
3275.3308  12.36539355 98.75      56.29695054 0.31458853 2.53400999
3275.4832  12.36841799 99.09109768 57.41792007 0.31458853 2.5342752 
3275.6356  12.37077549 99.29107512 56.95715032 0.31907731 2.53565259
3275.788   12.372175  99.49105256999999 55.33050907 0.31907731 2.53753399
3275.9404  12.37308868 99.69103001000001 53.42209449 0.32356608 2.53818355
3276.0928  12.37410045 99.89100746 51.98433738 0.32506234 2.53581422
3276.2452  12.37546064 100.0909849 51.21711179 0.32506234 2.53010252
3276.3976  12.37706381 100.29096235 50.73662827 0.3340399  2.52265503
3276.55    12.37869006 100.49093979 49.95307026 0.3340399  2.51632419
3276.7024  12.38021732 100.75     48.52151526 0.32805486 2.51333046
3276.8548  12.38165699 100.75     46.62870515 0.31458853 2.51412026
3277.0072  12.38307237 97.25      44.94226298 0.31458853 2.51760863
3277.1596  12.3845072 97.40563718 44.21659765 0.2786783  2.52228848
3277.312   12.38597664 97.55562026 44.84891364 0.2786783  2.52716636
3277.4644  12.38744916 97.70560335 46.59852743 0.2936409  2.53146493
3277.6168  12.38891964 97.85558643 48.68200407 0.29812968 2.53372551
3277.7692  12.39039013 98.00556951999999 50.23997771 0.29812968 2.53223134
3277.9216  12.39186062 98.25      50.74863315 0.31309227 2.5265876 
3278.074   12.39333111 98.25      50.26007686 0.31309227 2.51964237
3278.2264  12.39480159 98.25      49.21355283 0.31009975 2.51716211
3278.3788  12.39627208 98.25      48.06079527 0.30411471 2.52459331
3278.5312  12.39774257 98.25      46.98901479 0.30411471 2.54294992
3278.6836  12.39921305 98.25      45.91081261 0.29513716 2.56701948
3278.836   12.40068354 98.25      44.70389564 0.29513716 2.58773982
3278.9884  12.40215403 98.25      43.46068364 0.29812968 2.59744289
3279.1408  12.40362451 98.25      42.52390322 0.29962594 2.59376363
3279.2932  12.405095  98.25      42.26575878 0.29962594 2.58023172
3279.4456  12.40656549 98.25      42.8391785 0.30710723 2.5632409 
3279.598   12.40803597 98.25      44.06137515 0.30710723 2.54795703
3279.7504  12.40950646 98.25      45.46018888 0.30561097 2.53638227
3279.9028  12.41097695 98.25      46.50004306 0.30411471 2.52817251
3280.0552  12.41244743 98.25      46.80527453 0.30411471 2.52291459
3280.2076  12.41391792 98.25      46.27189732 0.30860349 2.52112955
3280.36    12.41538841 98.25      45.07320152 0.30860349 2.52371704
3280.5124  12.41685889 98.25      43.62194365 0.30112219 2.53021574
3280.6648  12.41832938 98.25      42.45914085 0.29962594 2.53810075
3280.8172  12.41979987 98.25      42.07008656 0.29962594 2.54388199
3280.9696  12.42127035 98.25      42.67660912 0.2861596  2.54491914
3281.122   12.42274084 98.25      44.09848739 0.2861596  2.54094393
3281.2744  12.42421133 98.25      45.78728595 0.2861596  2.53359809
3281.4268  12.42568182 98.25      47.07472812 0.28765586 2.52506522
3281.5792  12.4271523 98.25      47.48393096 0.28765586 2.51666364
3281.7316  12.42862279 98.26825055 46.96582193 0.28466334 2.50885244
3281.884   12.43009328 98.28589562000001 45.88685075 0.28466334 2.50227528
3282.0364  12.43156376 98.30354069000001 44.80870428 0.28915212 2.49840339
3282.1888  12.43303425 98.32118576000001 44.17992729 0.2936409  2.49880805
3282.3412  12.43450474 98.33883083000001 44.12000362 0.2936409  2.50369286
3282.4936  12.43597522 98.35647590000001 44.45217807 0.29962594 2.51077737
3282.646   12.43744571 98.37412096 44.88485396 0.29962594 2.51649848
3282.7984  12.4389162 98.39176603 45.2089243 0.30561097 2.5181805 
3282.9508  12.44038668 98.4094111 45.45381468 0.30860349 2.51588425
3283.1032  12.44185717 98.42705617 45.799633  0.30860349 2.51218801
3283.2556  12.44332766 98.44470124 46.38479561 0.31725407 2.51019157
3283.408   12.44479814 98.46234631 47.17123854 0.31789159 2.51136108
3283.5604  12.44626863 98.47999138 47.9739384 0.32629232 2.51480408
3283.7128  12.44773912 98.49763643999999 48.63376769 0.33722212 2.51822386
3283.8652  12.4492096 98.51528150999999 49.19680698 0.33681363 2.51973252
3284.0176  12.45068009 98.53292657999999 49.90388826 0.3417709  2.51896204
3284.17    12.45215058 98.55057164999999 50.93259824 0.34108908 2.51696439
3284.3224  12.45362106 98.56821672 52.15739127 0.331649   2.51552213
3284.4748  12.45509155 98.58586179 53.14052455 0.32122978 2.51611519
3284.6272  12.45656204 98.60350686 53.3920517 0.32312119 2.51939707
3284.7796  12.45803253 98.62115193 52.73585042 0.3372835  2.52427104
3284.932   12.45950301 98.63879699 51.48232586 0.33984313 2.52817109
3285.0844  12.4609735 98.65644206 50.2163417 0.34758428 2.5279154 
3285.2368  12.46244399 98.67408713 49.44760323 0.36375516 2.52210797
3285.3892  12.46391447 98.6917322 49.32016339 0.36112166 2.51315596
3285.5416  12.46538496 98.70937727 49.60007686 0.35163666 2.50679763
3285.694   12.46685545 98.72702234 49.92105002 0.35049875 2.50877188
3285.8464  12.46832593 98.75      50.06766968 0.34451372 2.52040988
3285.9988  12.46979642 98.75      50.10114744 0.34600998 2.53675315
3286.1512  12.47126691 98.75      50.32150761 0.34600998 2.54927793
3286.3036  12.47273739 98.75      51.09985139 0.35049875 2.55153482
3286.456   12.47420788 98.75      52.60298881 0.35049875 2.54341752
3286.6084  12.47567837 98.75      54.54560903 0.35049875 2.53079092
3286.7608  12.47714885 98.75      56.08490014 0.34750623 2.52122924
3286.9132  12.47861934 99.00455454 56.09328149 0.34750623 2.51930729
3287.0656  12.48008983 99.25      53.77014012 0.3340399  2.52479843
3287.218   12.48156031 99.25      49.21971824 0.3340399  2.53434674
3287.3704  12.4830308 97.61396969 43.59087157 0.29979101 2.54431179
3287.5228  12.48450129 96.41410501999999 38.59845148 0.27119701 2.55229152
3287.6752  12.48597178 95.25      35.6052896 0.27119701 2.55695806
3287.8276  12.48744226 94.01437568 34.98347553 0.23229426 2.55774746
3287.98    12.48891275 92.81451101 36.06839603 0.23229426 2.55512784
3288.1324  12.49038324 91.61464633999999 37.75123947 0.28017456 2.55117678
3288.2848  12.49185372 90.41478167 39.18844397 0.28120695 2.54883921
3288.4372  12.49332421 89.25      40.15608891 0.28210471 2.54996003
3288.5896  12.4947947 90.27912305 40.86388915 0.28300246 2.55370591
3288.742   12.49626518 91.27901027999999 41.56134329 0.28390022 2.55701314
3288.8944  12.49773567 92.2788975 42.26244283 0.28466334 2.55682412
3289.0468  12.49920616 93.27878473 42.78093343 0.27119701 2.55228477
