~Version
 VERS              .         3.0                           : CWLS LOG ASCII STANDARD - VERSION 3.0
 WRAP              .         NO                            : ONE LINE PER DEPTH STEP
 DLM               .         SPACE                         : DELIMITING CHARACTER(SPACE TAB OR COMMA)
~Well Information
#_______________________________________________________________________________
#
#PARAMETER_NAME    .UNIT     VALUE                         : DESCRIPTION
#_______________________________________________________________________________
STRT               .m        400                           : First reference value
STOP               .m        4939.996                      : Last reference value
STEP               .m        0.1524                        : Step increment
NULL               .         -9999                         : Missing value
COMP               .                                       : Company
WELL               .         35-4-1                        : Well name
FLD                .                                       : Field
LOC                .                                       : Location
SRVC               .                                       : Service Company
CTRY               .                                       : Country
DATE               .                                       : Service Date
X                  .                                       : X or East-West coordinate
Y                  .                                       : Y or North South coordinate
GDAT               .                                       : Geodetic Datum
HZCS               .                                       : Horizontal Co-ordinate System
API                .                                       : API NUMBER
CNTY               .                                       : COUNTY
COUNTRY            .                                       : COUNTRY
ORIGINALWELLNAME   .         35-4-1-Composite Log NPHI     : 
STAT               .                                       : STATE
WSTA               .         LOC                           : Well status
TVD                .         NO                            : TVD flag
UWI                .                                       : UWI NUMBER
~Parameter Information Block
#_______________________________________________________________________________
#
#PARAMETER_NAME    .UNIT     VALUE                         : DESCRIPTION
#_______________________________________________________________________________
SET                .         Dataset                       : 
E                  .M        -9999.5000                    : E (Stretch Coefficient Of The Cable)
EPD                .M        -9999.5000                    : Elevation Of Perm. Datum
OTHER              .         <DescLogPlotStart>   NEURALOG PLOT DEFINITION: 
OTHER_10           .         STARTTRACK_                   : 
OTHER_11           .         LEFTX_ 0.500000 inch          : 
OTHER_12           .         RIGHTX_ 2.485000 inch         : 
OTHER_13           .         SCALETYPE_ Linear             : 
OTHER_14           .         NUMCHARTDIVISIONS_ 10         : 
OTHER_15           .         CURVE_ CALI  0.000000   24.000000  (0,0,255)      Solid             2     N: 
OTHER_16           .         ENDTRACK_                     : 
OTHER_17           .         STARTTRACK_                   : 
OTHER_18           .         LEFTX_ 2.985000 inch          : 
OTHER_19           .         RIGHTX_ 4.985000 inch         : 
OTHER_2            .         PLOTDEFVERSION_ 3             : 
OTHER_20           .         SCALETYPE_ Linear             : 
OTHER_21           .         NUMCHARTDIVISIONS_ 10         : 
OTHER_22           .         CURVE_ DT    240.000000 40.000000  (0,131,131)    Solid             2     N: 
OTHER_23           .         ENDTRACK_                     : 
OTHER_24           .         <DescLogPlotEnd>              : 
OTHER_3            .         LASFILE_ C_\nds\projects\well 35-4-1\las\35-4-1-Composite Log DT.las: 
OTHER_4            .         DEPTHSCALE_ 2000.000000       : 
OTHER_5            .         RESOLUTION_ 200               : 
OTHER_6            .         DEPTHLABELFREQ_ 100.000000    : 
OTHER_7            .         HEAVYGRIDFREQ_ 50.000000      : 
OTHER_8            .         MEDIUMGRIDFREQ_ 25.000000     : 
OTHER_9            .         LIGHTGRIDFREQ_ 25.000000      : 
PDAT               .                                       : Permanent Datum
RUN                .         ONE                           : Run Number
Status             .         LOC                           : 
TLFamily_CALI      .         Caliper                       : 
TLFamily_DT        .         Compressional Slowness        : 
TLFamily_GR        .         Gamma Ray                     : 
TLFamily_MD        .         Measured Depth                : 
TLFamily_NPHI      .         Neutron Porosity              : 
TLFamily_RHOB      .         Bulk Density                  : 
Total_depth        .M        4940.0000                     : Total Depth
~Curve Information
#_______________________________________________________________________________
#
#LOGNAME           .UNIT     LOG_ID                        : DESCRIPTION
#_______________________________________________________________________________
MD                 .m                                      :  {F}
CALI               .IN                                     : Caliper {F}
DT                 .US/F                                   : Delta-T {F}
GR                 .GAPI                                   : Gamma Ray {F}
NPHI               .                                       : Neutron Porosity {F}
RHOB               .G/C3                                   : Bulk Density {F}
~Ascii
# ...
4680.6112  8.856423169999999 71.69004103 75.85324783 0.17083245 2.69072482
4680.7636  8.85652563 70.7995533 77.58233855 0.15904561 2.68936663
4680.916   8.856598269999999 71.58899841 81.64344674 0.15858058 2.68857181
4681.0684  8.856543569999999 72.42890368 88.51292621 0.18525736 2.69002124
4681.2208  8.85639046 73.26880894999999 95.11331937 0.19662032 2.69538476
4681.3732  8.856135009999999 74.10871422 97.33126125 0.19952958 2.70490493
4681.5256  8.85608032 74.94861949 94.35145317 0.21681618 2.71649002
4681.678   8.856511810000001 75.78852476 89.0495152 0.21882793 2.72619732
4681.8304  8.85730721 76.62843003 84.52209884 0.21733167 2.73013716
4681.9828  8.857805949999999 77.75      81.51557807 0.21134663 2.72667294
4682.1352  8.857209190000001 77.75      79.12722924000001 0.21134663 2.71742226
4682.2876  8.85537413 76.12715215999999 76.54368099 0.1978803  2.70634413
4682.44    8.85347951 75.15226211 73.78913348 0.1978803  2.69753402
4682.5924  8.85400072 74.17737207 71.55142097 0.18890274 2.69318965
4682.7448  8.85981439 73.20248203 70.6262165 0.17842893 2.69291209
4682.8972  8.87280707 72.22759198 71.27005572 0.17842893 2.6946189 
4683.0496  8.892718329999999 71.25      72.96745248000001 0.17244389 2.69622598
4683.202   8.916876569999999 71.66131034999999 74.94247052 0.17244389 2.69692061
4683.3544  8.94103482 72.07376383 76.85681832 0.17394015 2.69730892
4683.5068  8.960946079999999 72.48621731 78.81615235 0.17693267 2.69860901
4683.6592  8.97393875 72.89867079 81.01155252 0.17693267 2.70150336
4683.8116  8.979649970000001 73.31112426999999 83.29818917 0.18890274 2.70544601
4683.964   8.980098549999999 73.72357775 84.83395105 0.18890274 2.70878889
4684.1164  8.978258629999999 74.13603123 84.55671948 0.197552   2.70976013
4684.2688  8.97657667 74.54848471 82.78182975999999 0.2083376  2.70753617
4684.4212  8.97623536 74.96093818999999 81.86296962999999 0.20867506 2.70274239
4684.5736  8.976788790000001 75.37339167 84.01832448 0.21228396 2.697191  
4684.726   8.97715269 75.78584515 88.49668599 0.21350965 2.6929991 
4684.8784  8.976788790000001 76.19829863 90.81380118 0.21061752 2.69158086
4685.0308  8.97623536 76.75      92.92647688 0.20901058 2.69308178
4685.1832  8.97657667 76.75      93.29513915 0.20775623 2.69652766
4685.3356  8.978258629999999 76.75      91.77025863999999 0.20432431 2.7003469 
4685.488   8.980098549999999 76.75      88.88367124 0.20346896 2.70303813
4685.6404  8.979649970000001 76.75      85.61068698 0.20417317 2.70367476
4685.7928  8.97393875 76.75      83.01369441 0.20053783 2.70214595
4685.9452  8.960946079999999 76.75      81.83633537 0.20121834 2.69915603
4686.0976  8.94103482 76.50075400999999 82.2900337 0.20490903 2.69600998
4686.25    8.916876569999999 76.35077093 83.9175858 0.20587583 2.69418823
4686.4024  8.892718329999999 76.20078784 85.8407198 0.2053616  2.69478243
4686.5548  8.87280707 76.05080476000001 87.1690313 0.20236908 2.69799864
4686.7072  8.85981439 75.90082167 87.40245675 0.20236908 2.70296286
4686.8596  8.85400072 75.75083859 86.57297106999999 0.19937656 2.70804017
4687.012   8.85347951 75.60085551 85.03508261 0.19937656 2.71157291
4687.1644  8.85547659 75.45087242 83.17210926 0.19638404 2.71262023
4687.3168  8.85738428 75.25      81.21795867 0.1978803  2.71123872
4687.4692  8.85792635 75.25      79.43479840000001 0.1978803  2.70822752
4687.6216  8.85717204 74.58579512 78.19915583 0.19937656 2.70452836
4687.774   8.85604856 74.18584023 78.00355672000001 0.19937656 2.70076857
4687.9264  8.85551461 73.78588535 79.09262701999999 0.19339152 2.69720833
4688.0788  8.85618373 73.25      81.20290015 0.190399   2.69407187
4688.2312  8.85761735 73.25      83.57088715 0.190399   2.69179814
4688.3836  8.858524770000001 73.25      85.44137211 0.18740648 2.69097218
4688.536   8.857623719999999 73.25      86.61246199 0.18740648 2.69198916
4688.6884  8.854695   73.25      87.50821225 0.190399   2.69472656
4688.8408  8.85158476 73.97945215999999 88.727419  0.19339152 2.69852173
4688.9932  8.852211629999999 74.52939013 90.42067147 0.19339152 2.70254136
4689.1456  8.86022953 75.07932811000001 92.0356614 0.2053616  2.70628569
4689.298   8.876571309999999 75.62926607999999 92.67408211999999 0.2053616  2.70983725
4689.4504  8.897636070000001 76.17920405 91.7745558 0.24725686 2.71368264
4689.6028  8.91600006 76.72914203000001 89.60207162 0.24341267 2.71822857
4689.7552  8.92401808 77.27907999999999 87.13760784999999 0.24004608 2.7233126 
4689.9076  8.917706799999999 77.82901797 85.44643608 0.2366795  2.72809195
4690.06    8.898971789999999 78.75      85.05698851 0.23331292 2.73137072
4690.2124  8.87522188 78.75      85.70688377 0.22994634 2.7322363 
4690.3648  8.856005550000001 78.23887114 86.60836628 0.22481297 2.73054699
4690.5172  8.8485946  77.85320034999999 86.94875374999999 0.22481297 2.72698256
4690.6696  8.855507080000001 77.46752957 86.38134008 0.22032419 2.72268961
4690.822   8.873906290000001 77.08185878 85.10339657 0.22032419 2.71871427
4690.9744  8.897050269999999 76.69618799 83.6787044 0.20985037 2.71551376
4691.1268  8.91684933 76.31051721 82.61470869999999 0.20087282 2.71280917
4691.2792  8.926663830000001 75.92484641999999 82.0162811 0.20087282 2.70982104
4691.4316  8.923650589999999 75.53917563 81.58157858 0.19488778 2.70586235
4691.584   8.90997598 75.15350485 80.81466737 0.19488778 2.70094884
4691.7364  8.892255069999999 74.76783406 79.49222732 0.18890274 2.69629013
4691.8888  8.87900679 74.25      77.8694127 0.18591022 2.69405929
4692.0412  8.87736774 74.25      76.54915771 0.18591022 2.69637711
4692.1936  8.889684949999999 74.05114453 76.09259108000001 0.17992519 2.70371468
4692.346   8.91265259 73.93115806 76.63668654999999 0.17992519 2.71385378
4692.4984  8.93910174 73.81117159 77.77982579 0.17693267 2.72242829
4692.6508  8.96154099 73.69118512999999 78.8596653 0.17992519 2.72525006
4692.8032  8.975489290000001 73.57119865999999 79.34544273 0.17992519 2.72107178
4692.9556  8.98080423 73.45121219000001 79.24084993 0.17842893 2.71280719
4693.108   8.98053017 73.25      79.01340479 0.17842893 2.70599516
4693.2604  8.97827657 73.25      79.26406024000001 0.17394015 2.70523342
4693.4128  8.976368859999999 73.25      80.30217073999999 0.17543641 2.7111054 
4693.5652  8.97546781 73.25      81.88858390999999 0.17661169 2.71982925
4693.7176  8.97535422 73.25      83.40316583000001 0.18036561 2.72591848
4693.87    8.97603365 73.25      84.20859038 0.1825268  2.72584512
4694.0224  8.97767633 73.25      84.06519741 0.19093538 2.72014674
4694.1748  8.979790660000001 73.77893181 83.25625530000001 0.19743246 2.71251931
4694.3272  8.98080509 74.17888670000001 82.38489185 0.19531701 2.70696505
4694.4796  8.978348199999999 74.57884159 81.98013435999999 0.19472684 2.70524025
4694.632   8.97080512 75.25      82.24664242 0.19185768 2.70635265
4694.7844  8.958450259999999 75.25      83.05047972 0.19379285 2.70815679
4694.9368  8.942839859999999 74.65520546 84.17358375000001 0.18979861 2.70931751
4695.0892  8.92564879 74.20525621 85.55027810999999 0.1942232  2.71041748
4695.2416  8.908104359999999 73.75      87.29833173 0.22930394 2.71330497
4695.394   8.89091329 75.13333157 89.5584526 0.2607275  2.71954519
4695.5464  8.87520043 76.53317369 92.31111846 0.27971648 2.7290584 
4695.6988  8.862772939999999 77.93301580000001 95.38314572 0.28597983 2.73985805
4695.8512  8.85528455 79.33285791 98.52921476 0.28695864 2.74895179
4696.0036  8.85298077 80.73270003 101.55721448 0.28942746 2.75382572
4696.156   8.854250649999999 82.13254214 104.28638635 0.29189629 2.75351586
4696.3084  8.85652213 83.53238426 106.51121655 0.29436511 2.74883291
4696.4608  8.857805949999999 84.93222637 107.95259041 0.29812968 2.74159468
4696.6132  8.857635289999999 86.33206849 108.45871074 0.29812968 2.73359012
4696.7656  8.856767380000001 87.75      108.12560234 0.29283235 2.72580647
4696.918   8.85613502 87.80921797000001 107.33840296 0.28924133 2.71845083
4697.0704  8.856062379999999 87.86921121 106.53277362 0.28565031 2.7114828 
4697.2228  8.856287999999999 87.92920444000001 105.91609006 0.28017456 2.70519186
