~Version
 VERS              .         3.0                           : CWLS LOG ASCII STANDARD - VERSION 3.0
 WRAP              .         NO                            : ONE LINE PER DEPTH STEP
 DLM               .         SPACE                         : DELIMITING CHARACTER(SPACE TAB OR COMMA)
~Well Information
#_______________________________________________________________________________
#
#PARAMETER_NAME    .UNIT     VALUE                         : DESCRIPTION
#_______________________________________________________________________________
STRT               .m        400                           : First reference value
STOP               .m        4939.996                      : Last reference value
STEP               .m        0.1524                        : Step increment
NULL               .         -9999                         : Missing value
COMP               .                                       : Company
WELL               .         35-4-1                        : Well name
FLD                .                                       : Field
LOC                .                                       : Location
SRVC               .                                       : Service Company
CTRY               .                                       : Country
DATE               .                                       : Service Date
X                  .                                       : X or East-West coordinate
Y                  .                                       : Y or North South coordinate
GDAT               .                                       : Geodetic Datum
HZCS               .                                       : Horizontal Co-ordinate System
API                .                                       : API NUMBER
CNTY               .                                       : COUNTY
COUNTRY            .                                       : COUNTRY
ORIGINALWELLNAME   .         35-4-1-Composite Log NPHI     : 
STAT               .                                       : STATE
WSTA               .         LOC                           : Well status
TVD                .         NO                            : TVD flag
UWI                .                                       : UWI NUMBER
~Parameter Information Block
#_______________________________________________________________________________
#
#PARAMETER_NAME    .UNIT     VALUE                         : DESCRIPTION
#_______________________________________________________________________________
SET                .         Dataset                       : 
E                  .M        -9999.5000                    : E (Stretch Coefficient Of The Cable)
EPD                .M        -9999.5000                    : Elevation Of Perm. Datum
OTHER              .         <DescLogPlotStart>   NEURALOG PLOT DEFINITION: 
OTHER_10           .         STARTTRACK_                   : 
OTHER_11           .         LEFTX_ 0.500000 inch          : 
OTHER_12           .         RIGHTX_ 2.485000 inch         : 
OTHER_13           .         SCALETYPE_ Linear             : 
OTHER_14           .         NUMCHARTDIVISIONS_ 10         : 
OTHER_15           .         CURVE_ CALI  0.000000   24.000000  (0,0,255)      Solid             2     N: 
OTHER_16           .         ENDTRACK_                     : 
OTHER_17           .         STARTTRACK_                   : 
OTHER_18           .         LEFTX_ 2.985000 inch          : 
OTHER_19           .         RIGHTX_ 4.985000 inch         : 
OTHER_2            .         PLOTDEFVERSION_ 3             : 
OTHER_20           .         SCALETYPE_ Linear             : 
OTHER_21           .         NUMCHARTDIVISIONS_ 10         : 
OTHER_22           .         CURVE_ DT    240.000000 40.000000  (0,131,131)    Solid             2     N: 
OTHER_23           .         ENDTRACK_                     : 
OTHER_24           .         <DescLogPlotEnd>              : 
OTHER_3            .         LASFILE_ C_\nds\projects\well 35-4-1\las\35-4-1-Composite Log DT.las: 
OTHER_4            .         DEPTHSCALE_ 2000.000000       : 
OTHER_5            .         RESOLUTION_ 200               : 
OTHER_6            .         DEPTHLABELFREQ_ 100.000000    : 
OTHER_7            .         HEAVYGRIDFREQ_ 50.000000      : 
OTHER_8            .         MEDIUMGRIDFREQ_ 25.000000     : 
OTHER_9            .         LIGHTGRIDFREQ_ 25.000000      : 
PDAT               .                                       : Permanent Datum
RUN                .         ONE                           : Run Number
Status             .         LOC                           : 
TLFamily_CALI      .         Caliper                       : 
TLFamily_DT        .         Compressional Slowness        : 
TLFamily_GR        .         Gamma Ray                     : 
TLFamily_MD        .         Measured Depth                : 
TLFamily_NPHI      .         Neutron Porosity              : 
TLFamily_RHOB      .         Bulk Density                  : 
Total_depth        .M        4940.0000                     : Total Depth
~Curve Information
#_______________________________________________________________________________
#
#LOGNAME           .UNIT     LOG_ID                        : DESCRIPTION
#_______________________________________________________________________________
MD                 .m                                      :  {F}
CALI               .IN                                     : Caliper {F}
DT                 .US/F                                   : Delta-T {F}
GR                 .GAPI                                   : Gamma Ray {F}
NPHI               .                                       : Neutron Porosity {F}
RHOB               .G/C3                                   : Bulk Density {F}
~Ascii
# ...
3026.9188  17.86766081 97.79655638 91.28836454 0.36507818 2.45999482
3027.0712  17.8675657 98.59158837 91.11476027 0.36555974 2.4589334 
3027.2236  17.85931577 99.73741545999999 91.59145805999999 0.37126897 2.46096001
3027.376   17.84349332 99.75292609 92.64907375999999 0.37190191 2.46499115
3027.5284  17.82470005 99.27170696 93.89310272 0.37483188 2.46931789
3027.6808  17.80908839 98.98648636999999 94.83487270000001 0.39719223 2.47247728
3027.8332  17.80046132 98.68307942 95.18089677 0.3927742  2.47386095
3027.9856  17.79890492 98.37594031 94.95147882000001 0.37464454 2.47381694
3028.138   17.80124266 98.09305051 94.37516737 0.36788858 2.47315861
3028.2904  17.80384826 97.73582992999999 93.65389982000001 0.35409783 2.47258743
3028.4428  17.80477405 97.01660511999999 92.80947054000001 0.36069555 2.47231242
3028.5952  17.8046343 96.15289847 91.66564888000001 0.36665841 2.4721811 
3028.7476  17.8046343 95.33065696 89.95220747 0.37844032 2.47202909
3028.9     17.80513304 94.48597155 87.5152574 0.38161391 2.47193247
3029.0524  17.80497269 93.63725911 84.48181913000001 0.35537072 2.47221422
3029.2048  17.8027385 92.83055201000001 81.34197043 0.34256439 2.47309472
3029.3572  17.79924426 91.92955010999999 78.88536356 0.32919192 2.47442003
3029.5096  17.79809769 90.81002731 77.87669382999999 0.31285873 2.47572071
3029.662   17.80458685 90.68104488 78.72346433 0.31331435 2.47644005
3029.8144  17.82195578 93.39980915 81.20502445 0.33542344 2.47639849
3029.9668  17.84901714 96.15939258 84.4362035 0.36231853 2.47603361
3030.1192  17.87948493 96.33149426 87.27504762 0.36277407 2.47611381
3030.2716  17.9055979 96.10006556 88.87715342 0.35585961 2.47716931
3030.424   17.92200389 96.10608567 89.08657773 0.35733634 2.47907108
3030.5764  17.9284884 96.03959883 88.44172485999999 0.34789142 2.48097963
3030.7288  17.92905699 95.84875344 87.6816421 0.34574942 2.48213678
3030.8812  17.92775069 96.00463687 87.10617910000001 0.34339591 2.48268076
3031.0336  17.92583627 95.55394357999999 86.24597601000001 0.33767388 2.48371715
3031.186   17.92075681 95.98842241 84.18075090000001 0.3373359  2.48613686
3031.3384  17.90817739 97.98496661999999 80.31083036 0.32506234 2.48896274
3031.4908  17.88531455 96.83845742 75.12430433 0.31907731 2.48893566
3031.6432  17.85318672 94.39875345999999 70.27589192000001 0.31907731 2.48236987
3031.7956  17.81656893 93.0223249 67.87556910000001 0.30710723 2.46837285
3031.948   17.78221316 90.63616236999999 69.3392625 0.30710723 2.45088769
3032.1004  17.75678254 88.96644264 74.54321434000001 0.22331671 2.43737518
3032.2528  17.7454529 90.33693168000001 81.84467402 0.23977556 2.43455017
3032.4052  17.75102983 92.69344933000001 88.94790399999999 0.23977556 2.44407599
3032.5576  17.77350335 94.37268007 94.02612949 0.27269327 2.4614198 
3032.71    17.80898751 96.65119731 96.43623819 0.27269327 2.4787445 
3032.8624  17.85030453 98.63716042 96.70008815 0.34900249 2.48966181
3033.0148  17.88858481 98.75128952 95.87430979 0.32805486 2.49238621
3033.1672  17.91617843 98.49311681 94.88412606999999 0.32805486 2.48948743
3033.3196  17.92973925 98.50473192 94.14232136 0.31458853 2.48496751
3033.472   17.93143301 98.33591619000001 93.70003317 0.31458853 2.48157011
3033.6244  17.92705459 98.26502594999999 93.42042739 0.30261845 2.47993727
3033.7768  17.92269441 98.16624341000001 93.20373503 0.28316708 2.47944327
3033.9292  17.92193927 98.04617113 92.97874739 0.28316708 2.47958272
3034.0816  17.92406716 97.96226611 92.67261431999999 0.28017456 2.48047312
3034.234   17.92598064 97.8632925 92.24123903 0.28017456 2.48226689
3034.3864  17.92501998 97.72681887 91.81304346 0.28167082 2.48464892
3034.5388  17.92158064 97.71056953 91.72122695 0.28466334 2.4864427 
3034.6912  17.91914582 97.47895659 92.34429572000001 0.28466334 2.48627952
3034.8436  17.92212168 97.56077146 93.68784533 0.2861596  2.48376134
3034.996   17.93235103 97.24602599000001 95.12643917 0.2861596  2.48065038
3035.1484  17.94736112 97.36942304 95.55132038000001 0.29513716 2.48105043
3035.3008  17.96054565 99.63476704999999 93.89643615999999 0.29663342 2.48987406
3035.4532  17.96406248 99.84769297 89.83921655 0.29663342 2.50954757
3035.6056  17.95342218 97.84562615999999 84.18025333999999 0.30860349 2.53699023
3035.758   17.92978515 96.42567400999999 78.63983880000001 0.30860349 2.56331947
3035.9104  17.900275  94.92584316999999 75.12191528 0.29064838 2.57756456
3036.0628  17.87501185 93.42601233000001 74.83860101 0.28017456 2.57273282
3036.2152  17.86254039 91.9261815 77.767157  0.28017456 2.55032491
3036.3676  17.86599767 89.75      82.68920509 0.25174564 2.51991072
3036.52    17.88198596 89.75      87.84035881 0.25174564 2.49370393
3036.6724  17.90267386 91.91842361 91.73000011000001 0.29064838 2.47978616
3036.8248  17.91989496 93.31826572999999 93.73159597999999 0.33104738 2.4784888 
3036.9772  17.92893586 94.71810784 94.15361808999999 0.33104738 2.48398908
3037.1296  17.92998658 96.75      93.85087041 0.32057357 2.48923845
3037.282   17.92674314 96.75      93.65422108999999 0.32057357 2.49041071
3037.4344  17.92342573 96.75      93.96728408 0.31758105 2.48805343
3037.5868  17.92229906 96.75      94.70455253999999 0.31009975 2.4850763 
3037.7392  17.92305325 96.75      95.46377764 0.31009975 2.48387799
3037.8916  17.92432983 96.50707231 95.77895802 0.31159601 2.48484134
3038.044   17.92507159 96.30709486000001 95.35592742999999 0.31159601 2.48683814
3038.1964  17.92499896 96.10711741999999 94.13503846 0.30860349 2.48848478
3038.3488  17.92467088 95.75      92.44621042 0.30112219 2.48908245
3038.5012  17.92448795 95.75      90.91294614 0.30112219 2.48887304
3038.6536  17.92437855 96.20527797 90.19045783 0.31309227 2.48852759
3038.806   17.92419562 96.58023568 90.57822539 0.31309227 2.48858686
3038.9584  17.92407246 96.95519339000001 91.80876103999999 0.31758105 2.48922347
3039.1108  17.92404263 97.33015109999999 93.14834182 0.31608479 2.4900445 
3039.2632  17.92460237 97.70510881 93.87417323 0.31608479 2.49044537
3039.4156  17.92552497 98.25      93.71974959000001 0.3265586  2.48986277
3039.568   17.9259512 98.25      93.01211149 0.3265586  2.48816269
3039.7204  17.924893  98.09533815 92.35771247 0.33254364 2.48574687
3039.8728  17.92254888 97.99534943 92.16357972 0.34301746 2.48335022
3040.0252  17.92064664 97.8953607 92.42493503999999 0.34301746 2.48159918
3040.1776  17.92198005 97.75      92.79166902 0.33254364 2.4807912 
3040.33    17.92922514 97.75      92.92300111 0.33254364 2.48077197
3040.4824  17.94299115 96.35509569 92.72639096 0.32506234 2.48130397
3040.6348  17.96143598 94.76036062 92.31192050999999 0.31458853 2.48212613
3040.7872  17.98037028 94.73517793000001 91.86454823 0.31597553 2.48310833
3040.9396  17.99560399 95.13069556000001 91.53867834 0.32956977 2.4839938 
3041.092   18.00418111 95.40415335 91.46393619 0.33243994 2.48453716
3041.2444  18.0057346 95.71496682999999 91.70793259 0.337257   2.48469041
3041.3968  18.00176757 96.02563988 92.12052872 0.34695026 2.48478904
3041.5492  17.99434006 96.29084965 92.17339076 0.34542174 2.48505497
3041.7016  17.98404934 96.77961984 91.04831785 0.33562776 2.48487367
3041.854   17.9693382 96.72142399000001 88.08171425 0.33593016 2.4822889 
3042.0064  17.94800219 95.72583308999999 83.34910257 0.33167907 2.47506368
3042.1588  17.92071475 95.03611601 77.95492086 0.32480101 2.46321778
3042.3112  17.89311862 94.32910895000001 73.68537067 0.32211029 2.4510762 
3042.4636  17.87498238 93.74701426999999 72.19159257 0.30865839 2.44638164
3042.616   17.87569392 92.92226205 74.11684107000001 0.3056693  2.45598498
3042.7684  17.89878192 92.36549586 78.77439223 0.30235157 2.48056367
3042.9208  17.93986668 93.43473779999999 84.52094803 0.28830298 2.51246915
3043.0732  17.98872816 94.78458555 89.58070101 0.28963406 2.53899966
3043.2256  18.03494379 96.75      92.82630652 0.29812968 2.54950237
3043.378   18.07166193 96.75      94.11364625 0.29812968 2.54143333
3043.5304  18.09634573 96.28686026 94.03857747000001 0.30710723 2.52124851
3043.6828  18.10829587 95.9868941 93.42503215000001 0.32057357 2.49989464
