~Version
 VERS              .         3.0                           : CWLS LOG ASCII STANDARD - VERSION 3.0
 WRAP              .         NO                            : ONE LINE PER DEPTH STEP
 DLM               .         SPACE                         : DELIMITING CHARACTER(SPACE TAB OR COMMA)
~Well Information
#_______________________________________________________________________________
#
#PARAMETER_NAME    .UNIT     VALUE                         : DESCRIPTION
#_______________________________________________________________________________
STRT               .m        390.498                       : First reference value
STOP               .m        3963.10580828711              : Last reference value
STEP               .m        0.152                         : Step increment
NULL               .         -9999                         : Missing value
COMP               .         GULF                          : Company
WELL               .         35/8-3                        : Well name
FLD                .                                       : Field
LOC                .         UNKNOWN                       : Location
SRVC               .         UNKNOWN                       : Service Company
CTRY               .         UN                            : Country
DATE               .                                       : Service Date
X                  .                                       : X or East-West coordinate
Y                  .                                       : Y or North South coordinate
GDAT               .                                       : Geodetic Datum
HZCS               .                                       : Horizontal Co-ordinate System
API                .         526                           : API NUMBER
CNTY               .         UNKNOWN                       : LOCATION
COUNTRY            .         UNKNOWN                       : COUNTRY
ELEV               .M        -999.250000                   : SURFACE ELEV
ELEV_TYPE___________________________________________23 .000000KB                               : ELEV TYPE
LAT                .         61.351486                     : LATITUDE
LON                .         3.534064                      : LONGITUDE
STAT               .         UNKNOWN                       : STATE
XCOORD             .         528566.790000                 : SURFACE X
YCOORD             .         6802217.370000                : SURFACE Y
~Parameter Information Block
#_______________________________________________________________________________
#
#PARAMETER_NAME    .UNIT     VALUE                         : DESCRIPTION
#_______________________________________________________________________________
SET                .         Dataset                       : 
TLFamily_DT        .         Compressional Slowness        : 
TLFamily_GR        .         Gamma Ray                     : 
TLFamily_MD        .         Measured Depth                : 
TLFamily_NPHI      .         Neutron Porosity              : 
TLFamily_RHOB      .         Bulk Density                  : 
~Curve Information
#_______________________________________________________________________________
#
#LOGNAME           .UNIT     LOG_ID                        : DESCRIPTION
#_______________________________________________________________________________
MD                 .m                                      :  {F}
DT                 .us/ft                                  :  {F}
GR                 .gAPI                                   :  {F}
NPHI               .                                       :  {F}
RHOB               .g/cm3                                  :  {F}
~Ascii
# ...
3532.337831402937 82.20711   97.52409   0.2540337  2.551997  
3532.48983139478 80.67889   83.26354   0.2167383  2.517981  
3532.641831386623 80.32956   79.2699    0.1976031  2.438841  
3532.793831378467 80.80349   76.24727   0.19666    2.334612  
3532.94583137031 85.45081   76.06399   0.1976261  2.259781  
3533.097831362154 84.08982   75.1912    0.1876292  2.256017  
3533.249831353997 82.27991   75.32704   0.1679738  2.318614  
3533.40183134584 79.87428   71.03904   0.1461122  2.405746  
3533.553831337684 78.66794   66.1757    0.1283107  2.466279  
3533.705831329527 78.35214   63.86485   0.1189815  2.483757  
3533.857831321371 79.43621   67.48096   0.1209862  2.479608  
3534.009831313214 79.72247   70.70345   0.1328308  2.470877  
3534.161831305058 78.73165   74.229     0.1464108  2.453788  
3534.313831296901 76.93811   75.44075   0.1530877  2.413781  
3534.465831288744 76.07539   76.7618    0.1517831  2.349903  
3534.617831280588 75.80742   74.71302   0.1520123  2.295775  
3534.769831272431 75.72304   72.55508   0.1680385  2.293748  
3534.921831264274 77.09088   76.62865   0.2051878  2.35392   
3535.073831256118 78.61701   88.99711   0.2535186  2.447637  
3535.225831247961 78.21619   99.13811   0.293617   2.528228  
3535.377831239804 79.25813   102.2972   0.3140708  2.566391  
3535.529831231648 79.68261   99.63061   0.3207277  2.567397  
3535.681831223491 79.50278   102.9891   0.3224954  2.553862  
3535.833831215335 78.42399   108.9271   0.3170892  2.544285  
3535.985831207178 76.13844   109.0039   0.2968245  2.546776  
3536.137831199022 75.01651   103.9926   0.269003   2.563959  
3536.289831190865 77.36214   98.85242   0.25688    2.587529  
3536.441831182708 81.07822   99.15016   0.275037   2.598012  
3536.593831174552 81.2951    102.6318   0.3097293  2.589422  
3536.745831166395 77.71802   99.5495    0.3255323  2.578052  
3536.897831158239 74.4057    91.85239   0.3013937  2.578883  
3537.049831150082 74.00588   80.33392   0.2588599  2.59098   
3537.201831141925 76.95886   78.37269   0.2388923  2.601952  
3537.353831133769 80.40044   87.60212   0.2577139  2.598257  
3537.505831125612 83.16095   99.33968   0.2978186  2.579089  
3537.657831117455 83.3736    109.2514   0.3337308  2.560938  
3537.809831109299 83.17739   111.9913   0.35076    2.558694  
3537.961831101142 84.62944   110.8949   0.347443   2.565649  
3538.113831092985 86.93945   109.0739   0.3354415  2.562551  
3538.265831084829 89.12311   111.4993   0.3292523  2.544134  
3538.417831076672 89.88396   116.4773   0.3324477  2.526536  
3538.569831068516 89.08047   117.7684   0.3383123  2.522623  
3538.721831060359 88.36622   118.5805   0.3406031  2.527797  
3538.873831052203 88.30832   117.9679   0.3400061  2.530857  
3539.025831044046 86.52091   119.3052   0.3387631  2.519717  
3539.17783103589 86.41975   115.5379   0.3326815  2.489401  
3539.329831027733 85.70412   113.2837   0.3182415  2.452171  
3539.481831019576 84.63279   110.2511   0.3012692  2.429328  
3539.63383101142 85.87273   112.6579   0.29468    2.438723  
3539.785831003263 85.74566   112.4103   0.3041723  2.479891  
3539.937830995106 84.97995   113.59     0.3214616  2.525165  
3540.08983098695 85.28786   111.5707   0.3366554  2.546659  
3540.241830978793 85.52339   110.564    0.3437862  2.545609  
3540.393830970636 85.48082   112.0031   0.3395308  2.540518  
3540.54583096248 84.8083    111.2219   0.3255354  2.541072  
3540.697830954323 84.90035   107.5502   0.3118246  2.544574  
3540.849830946167 86.13924   106.0809   0.3090661  2.548909  
3541.00183093801 86.54762   109.1014   0.3163216  2.556129  
3541.153830929853 86.38967   113.0842   0.3242569  2.565181  
3541.305830921697 83.84386   112.8073   0.3259185  2.574919  
3541.45783091354 81.4281    108.0328   0.3207615  2.591131  
3541.609830905384 80.98131   106.9922   0.31222    2.618005  
3541.761830897227 81.95966   106.5377   0.3070585  2.644341  
3541.913830889071 83.48881   107.8842   0.3117677  2.65032   
3542.065830880914 84.13231   110.1906   0.32232    2.634032  
3542.217830872757 84.84498   112.4061   0.3264677  2.612203  
3542.369830864601 84.25806   113.143    0.3180138  2.596537  
3542.521830856444 83.45447   109.9128   0.3027708  2.591982  
3542.673830848287 83.47279   108.9165   0.2909108  2.602209  
3542.825830840131 82.87318   108.3338   0.2863092  2.621937  
3542.977830831974 83.37087   108.9485   0.2875215  2.635555  
3543.129830823817 84.39143   104.808    0.2936338  2.632494  
3543.281830815661 85.82215   102.4732   0.3033662  2.618029  
3543.433830807504 86.99667   103.1138   0.3152508  2.604084  
3543.585830799348 87.31216   107.7584   0.3274123  2.594512  
3543.737830791191 87.79988   111.146    0.3356123  2.587791  
3543.889830783035 87.68415   111.7707   0.3352938  2.584903  
3544.041830774878 88.72562   107.406    0.3273292  2.584552  
3544.193830766721 90.40173   105.7351   0.3195892  2.582972  
3544.345830758565 91.52649   109.6865   0.3159169  2.578546  
3544.497830750408 92.11964   116.4021   0.3118462  2.557235  
3544.649830742252 89.18543   118.1827   0.3002338  2.482523  
3544.801830734095 81.65643   110.9865   0.2789938  2.339239  
3544.953830725938 77.08718   100.8734   0.2527108  2.178531  
3545.105830717782 71.83389   89.32736   0.2264923  2.087014  
3545.257830709625 66.16179   78.03914   0.2041015  2.103963  
3545.409830701468 65.78547   72.29591   0.1821369  2.188434  
3545.561830693312 65.86906   71.53105   0.1546862  2.279566  
3545.713830685155 64.01075   75.20322   0.1288108  2.358865  
3545.865830676998 65.58258   77.72105   0.1229261  2.435949  
3546.017830668842 71.85224   82.1023    0.1462615  2.509126  
3546.169830660685 77.80458   63.64932   0.1861246  2.564919  
3546.321830652529 81.94092   46.7593    0.2253231  2.589163  
3546.473830644372 82.70805   57.66602   0.2596985  2.580129  
3546.625830636216 84.26509   63.75632   0.2906754  2.555352  
3546.777830628059 88.18221   66.79671   0.3144107  2.534616  
3546.929830619903 89.67922   71.1754    0.3263569  2.526508  
3547.081830611746 89.4608    74.06078   0.3293477  2.53048   
3547.233830603589 88.84728   74.03111   0.3285646  2.541894  
3547.385830595433 88.64409   72.4869    0.3274031  2.554561  
3547.537830587276 88.48528   73.32362   0.3282831  2.563502  
3547.689830579119 87.47755   75.9474    0.3307292  2.568128  
3547.841830570963 87.84133   74.90577   0.3343154  2.569058  
3547.993830562806 88.4922    74.75687   0.3393077  2.566777  
3548.145830554649 87.48726   77.5901    0.3435277  2.564951  
3548.297830546493 86.92046   81.56129   0.3434246  2.567312  
3548.449830538336 86.4854    80.76556   0.3387969  2.570292  
3548.60183053018 85.76353   77.78097   0.3354539  2.568535  
3548.753830522023 85.31521   75.83239   0.3372677  2.567923  
3548.905830513866 83.88856   72.85416   0.3443723  2.577823  
3549.05783050571 82.69335   71.3288    0.3556046  2.598508  
3549.209830497553 82.71779   69.69755   0.3632784  2.621637  
3549.361830489397 82.66293   71.15783   0.3594323  2.632105  
3549.51383048124 83.99799   70.64304   0.3461723  2.621708  
3549.665830473084 85.19375   69.92773   0.33618    2.601602  
3549.817830464927 84.34989   71.86642   0.3376954  2.588695  
3549.969830456771 84.76291   74.67052   0.3469123  2.585946  
3550.121830448614 85.76084   76.45618   0.3561461  2.584231  
3550.273830440457 85.9829    75.36481   0.3614231  2.580969  
3550.425830432301 84.70419   73.80212   0.3629046  2.581275  
3550.577830424144 84.9216    73.76022   0.3597446  2.585214  
3550.729830415987 85.87316   74.6441    0.3536     2.587895  
3550.881830407831 85.52406   74.23109   0.3464108  2.58628   
3551.033830399674 84.57964   74.92368   0.3390031  2.583759  
3551.185830391517 82.32254   76.31077   0.3331862  2.584874  
3551.337830383361 83.89458   78.60885   0.3325231  2.588323  
3551.489830375204 85.46758   78.92596   0.3399123  2.589756  
3551.641830367048 84.46126   76.02533   0.3521     2.587037  
3551.793830358891 84.87521   74.36116   0.3636723  2.582729  
3551.945830350734 85.81337   74.27274   0.3694893  2.580456  
