~Version
 VERS              .         3.0                           : CWLS LOG ASCII STANDARD - VERSION 3.0
 WRAP              .         NO                            : ONE LINE PER DEPTH STEP
 DLM               .         SPACE                         : DELIMITING CHARACTER(SPACE TAB OR COMMA)
~Well Information
#_______________________________________________________________________________
#
#PARAMETER_NAME    .UNIT     VALUE                         : DESCRIPTION
#_______________________________________________________________________________
STRT               .m        390.498                       : First reference value
STOP               .m        3963.10580828711              : Last reference value
STEP               .m        0.152                         : Step increment
NULL               .         -9999                         : Missing value
COMP               .         GULF                          : Company
WELL               .         35/8-3                        : Well name
FLD                .                                       : Field
LOC                .         UNKNOWN                       : Location
SRVC               .         UNKNOWN                       : Service Company
CTRY               .         UN                            : Country
DATE               .                                       : Service Date
X                  .                                       : X or East-West coordinate
Y                  .                                       : Y or North South coordinate
GDAT               .                                       : Geodetic Datum
HZCS               .                                       : Horizontal Co-ordinate System
API                .         526                           : API NUMBER
CNTY               .         UNKNOWN                       : LOCATION
COUNTRY            .         UNKNOWN                       : COUNTRY
ELEV               .M        -999.250000                   : SURFACE ELEV
ELEV_TYPE___________________________________________23 .000000KB                               : ELEV TYPE
LAT                .         61.351486                     : LATITUDE
LON                .         3.534064                      : LONGITUDE
STAT               .         UNKNOWN                       : STATE
XCOORD             .         528566.790000                 : SURFACE X
YCOORD             .         6802217.370000                : SURFACE Y
~Parameter Information Block
#_______________________________________________________________________________
#
#PARAMETER_NAME    .UNIT     VALUE                         : DESCRIPTION
#_______________________________________________________________________________
SET                .         Dataset                       : 
TLFamily_DT        .         Compressional Slowness        : 
TLFamily_GR        .         Gamma Ray                     : 
TLFamily_MD        .         Measured Depth                : 
TLFamily_NPHI      .         Neutron Porosity              : 
TLFamily_RHOB      .         Bulk Density                  : 
~Curve Information
#_______________________________________________________________________________
#
#LOGNAME           .UNIT     LOG_ID                        : DESCRIPTION
#_______________________________________________________________________________
MD                 .m                                      :  {F}
DT                 .us/ft                                  :  {F}
GR                 .gAPI                                   :  {F}
NPHI               .                                       :  {F}
RHOB               .g/cm3                                  :  {F}
~Ascii
# ...
2287.457898205546 105.9488   90.20766   0.2887188  2.378286  
2287.60989819739 105.1112   91.21999   0.2822739  2.378906  
2287.761898189233 105.0389   94.58686   0.2849362  2.378007  
2287.913898181077 104.2362   96.38718   0.2977275  2.377599  
2288.06589817292 105.3377   98.28338   0.311129   2.377404  
2288.217898164763 105.3202   96.24072   0.3182681  2.378036  
2288.369898156607 104.9972   96.93469   0.3232594  2.380774  
2288.52189814845 105.1388   94.30673   0.328613   2.382107  
2288.673898140294 103.6098   97.09537   0.3295739  2.378299  
2288.825898132137 104.5905   93.41215   0.3193754  2.371894  
2288.977898123981 104.319    95.86057   0.3043421  2.368701  
2289.129898115824 104.1779   89.89777   0.3009058  2.369684  
2289.281898107668 104.3416   87.86292   0.3130666  2.371243  
2289.433898099511 104.0554   84.25394   0.3311217  2.372193  
2289.585898091354 103.7388   86.62497   0.3420217  2.374474  
2289.737898083198 103.8342   90.82735   0.3399102  2.378567  
2289.889898075041 103.9665   95.76774   0.3305754  2.381245  
2290.041898066884 101.9774   93.60873   0.3224421  2.387464  
2290.193898058728 95.04579   86.94828   0.3187116  2.413111  
2290.345898050571 87.5996    78.06902   0.3165203  2.436158  
2290.497898042414 89.51918   76.57122   0.3189435  2.388347  
2290.649898034258 93.43555   81.30884   0.339555   2.256127  
2290.801898026101 104.7699   84.44716   0.3765086  2.124771  
2290.953898017945 111.1903   90.76912   0.4007927  2.081543  
2291.105898009788 109.9566   99.93278   0.3909537  2.129997  
2291.257898001631 109.5088   105.5027   0.3607349  2.218124  
2291.409897993475 107.4354   110.5955   0.3380421  2.30073   
2291.561897985318 107.1609   108.8554   0.3342609  2.355726  
2291.713897977162 107.3326   106.5418   0.3418782  2.380123  
2291.865897969005 107.3681   104.1005   0.3484768  2.382396  
2292.017897960849 108.1704   99.32376   0.3478334  2.374667  
2292.169897952692 108.5297   100.0339   0.3421     2.368374  
2292.321897944535 108.7943   97.21064   0.3376638  2.366749  
2292.473897936379 108.9584   94.11475   0.3378826  2.3668    
2292.625897928222 108.5561   94.3267    0.3393957  2.367539  
2292.777897920065 108.3624   91.93493   0.3393551  2.370074  
2292.929897911909 109.2685   91.7163    0.3403797  2.370717  
2293.081897903752 108.639    92.27589   0.345742   2.360286  
2293.233897895595 104.9579   91.16271   0.3520174  2.3372    
2293.385897887439 108.4228   91.1277    0.3520826  2.31773   
2293.537897879282 107.7188   86.73166   0.3472377  2.321906  
2293.689897871126 108.2357   87.04189   0.3444029  2.345896  
2293.841897862969 105.8067   91.12244   0.3437072  2.361875  
2293.993897854813 106.8026   98.98528   0.3436435  2.350887  
2294.145897846656 106.5394   96.05083   0.3494217  2.317105  
2294.297897838499 107.2844   87.08753   0.3627347  2.273331  
2294.449897830343 108.986    82.65146   0.3769101  2.229751  
2294.601897822186 110.0958   86.01855   0.384629   2.194952  
2294.75389781403 110.2318   92.7608    0.3813696  2.182722  
2294.905897805873 110.9504   95.45036   0.3651175  2.211407  
2295.057897797716 109.7159   95.6284    0.3390117  2.278566  
2295.20989778956 106.6891   96.19689   0.3144929  2.344235  
2295.361897781403 105.6698   92.54655   0.3034652  2.375467  
2295.513897773246 105.9953   90.32643   0.3064898  2.383862  
2295.66589776509 106.1738   83.6808    0.3141492  2.39059   
2295.817897756933 106.584    83.04201   0.3169116  2.394849  
2295.969897748776 106.2578   84.24589   0.3120102  2.389184  
2296.12189774062 106.2379   88.61263   0.3059768  2.377683  
2296.273897732463 106.2852   87.13303   0.3072043  2.374265  
2296.425897724307 107.1054   90.55655   0.3169536  2.385126  
2296.57789771615 108.4152   91.61238   0.3300072  2.397249  
2296.729897707994 107.9098   91.10981   0.3378797  2.395577  
2296.881897699837 108.2749   85.94478   0.3361464  2.384238  
2297.033897691681 108.9155   83.52694   0.3279725  2.377016  
2297.185897683524 109.5633   89.7857    0.3169377  2.37797   
2297.337897675367 109.1983   96.1196    0.3035073  2.380543  
2297.489897667211 109.9391   97.90197   0.2916638  2.374447  
2297.641897659054 109.8701   95.40244   0.2949361  2.349271  
2297.793897650897 111.7179   92.55115   0.321723   2.301721  
2297.945897642741 112.0911   91.73412   0.357065   2.251703  
2298.097897634584 111.6508   90.92281   0.3733029  2.238138  
2298.249897626427 111.4163   90.05672   0.3572828  2.274727  
2298.401897618271 109.833    89.02181   0.3214872  2.329578  
2298.553897610114 109.9261   87.18623   0.2912494  2.364371  
2298.705897601958 108.0901   85.99911   0.2882405  2.362313  
2298.857897593801 106.4072   91.97671   0.3176301  2.313057  
2299.009897585644 108.3776   94.31086   0.3616809  2.219159  
2299.161897577488 108.1517   102.8534   0.3914897  2.130424  
2299.313897569331 111.3618   100.9455   0.3923508  2.117404  
2299.465897561175 110.7166   99.36742   0.3733755  2.196786  
2299.617897553018 108.5306   95.97105   0.3529204  2.308002  
2299.769897544862 106.934    96.1838    0.3431696  2.377546  
2299.921897536705 106.7501   93.96044   0.3447565  2.395842  
2300.073897528548 106.6421   91.34634   0.3525796  2.395661  
2300.225897520392 106.6889   90.6888    0.3605057  2.391155  
2300.377897512235 104.4911   89.86781   0.3612348  2.37646   
2300.529897504078 105.4685   90.0562    0.3508668  2.350173  
2300.681897495922 106.6938   87.12935   0.3323523  2.326125  
2300.833897487765 106.8842   89.27996   0.3151957  2.323855  
2300.985897479608 107.8086   86.07896   0.3098304  2.346219  
2301.137897471452 105.9651   89.17625   0.3183448  2.373585  
2301.289897463295 105.5202   87.44613   0.3310217  2.387761  
2301.441897455139 105.7336   92.82421   0.3329522  2.390599  
2301.593897446982 104.9183   89.08686   0.3197407  2.392375  
2301.745897438826 104.638    91.00817   0.304529   2.397155  
2301.897897430669 104.5063   87.50836   0.3024     2.403207  
2302.049897422512 106.864    89.43407   0.3119608  2.40689   
2302.201897414356 106.0556   90.15408   0.320171   2.404988  
2302.353897406199 106.2324   90.66449   0.3196377  2.396781  
2302.505897398043 106.4883   89.33332   0.3126638  2.384349  
2302.657897389886 105.7981   90.42168   0.3040116  2.37262   
2302.809897381729 105.3862   90.2917    0.2973348  2.365088  
2302.961897373573 107.2303   96.0503    0.3005666  2.346928  
2303.113897365416 109.2565   93.56955   0.3232026  2.281282  
2303.265897357259 107.3858   91.55534   0.3596678  2.159687  
2303.417897349103 96.86808   86.0387    0.3889593  2.038418  
2303.569897340946 100.8298   84.85072   0.3936754  1.980217  
2303.721897332789 99.98232   85.0294    0.3753422  1.992005  
2303.873897324633 101.2578   80.61247   0.3548537  2.040539  
2304.025897316476 109.7651   82.32347   0.3517391  2.097879  
2304.17789730832 110.6614   84.61806   0.3636375  2.155978  
2304.329897300163 110.2665   90.74619   0.3732246  2.211221  
2304.481897292007 111.6206   92.23618   0.3695798  2.259331  
2304.63389728385 111.4462   93.83417   0.3585798  2.299142  
2304.785897275694 109.7542   95.04358   0.3529015  2.329814  
2304.937897267537 111.5685   91.03837   0.354771   2.350782  
2305.08989725938 110.0805   84.25422   0.3554696  2.363681  
2305.241897251224 109.6381   81.89725   0.3479899  2.370126  
2305.393897243067 109.6339   86.72062   0.3343581  2.369681  
2305.54589723491 109.089    93.54417   0.3238435  2.362917  
2305.697897226754 107.7196   93.87049   0.3225739  2.353913  
2305.849897218597 109.7172   93.01221   0.3258782  2.349204  
2306.00189721044 110.378    86.19812   0.3256754  2.355503  
2306.153897202284 109.2916   86.91538   0.3197609  2.371169  
2306.305897194127 108.299    89.68784   0.3128392  2.384143  
2306.457897185971 109.906    92.30176   0.3118246  2.385735  
2306.609897177814 109.828    92.57669   0.3160637  2.378767  
2306.761897169657 109.1839   86.67071   0.3186493  2.372425  
2306.913897161501 109.6886   87.75248   0.3171725  2.372622  
2307.065897153344 108.9136   85.04125   0.3151565  2.376965  
