~Version
 VERS              .         3.0                           : CWLS LOG ASCII STANDARD - VERSION 3.0
 WRAP              .         NO                            : ONE LINE PER DEPTH STEP
 DLM               .         SPACE                         : DELIMITING CHARACTER(SPACE TAB OR COMMA)
~Well Information
#_______________________________________________________________________________
#
#PARAMETER_NAME    .UNIT     VALUE                         : DESCRIPTION
#_______________________________________________________________________________
STRT               .m        390.498                       : First reference value
STOP               .m        3963.10580828711              : Last reference value
STEP               .m        0.152                         : Step increment
NULL               .         -9999                         : Missing value
COMP               .         GULF                          : Company
WELL               .         35/8-3                        : Well name
FLD                .                                       : Field
LOC                .         UNKNOWN                       : Location
SRVC               .         UNKNOWN                       : Service Company
CTRY               .         UN                            : Country
DATE               .                                       : Service Date
X                  .                                       : X or East-West coordinate
Y                  .                                       : Y or North South coordinate
GDAT               .                                       : Geodetic Datum
HZCS               .                                       : Horizontal Co-ordinate System
API                .         526                           : API NUMBER
CNTY               .         UNKNOWN                       : LOCATION
COUNTRY            .         UNKNOWN                       : COUNTRY
ELEV               .M        -999.250000                   : SURFACE ELEV
ELEV_TYPE___________________________________________23 .000000KB                               : ELEV TYPE
LAT                .         61.351486                     : LATITUDE
LON                .         3.534064                      : LONGITUDE
STAT               .         UNKNOWN                       : STATE
XCOORD             .         528566.790000                 : SURFACE X
YCOORD             .         6802217.370000                : SURFACE Y
~Parameter Information Block
#_______________________________________________________________________________
#
#PARAMETER_NAME    .UNIT     VALUE                         : DESCRIPTION
#_______________________________________________________________________________
SET                .         Dataset                       : 
TLFamily_DT        .         Compressional Slowness        : 
TLFamily_GR        .         Gamma Ray                     : 
TLFamily_MD        .         Measured Depth                : 
TLFamily_NPHI      .         Neutron Porosity              : 
TLFamily_RHOB      .         Bulk Density                  : 
~Curve Information
#_______________________________________________________________________________
#
#LOGNAME           .UNIT     LOG_ID                        : DESCRIPTION
#_______________________________________________________________________________
MD                 .m                                      :  {F}
DT                 .us/ft                                  :  {F}
GR                 .gAPI                                   :  {F}
NPHI               .                                       :  {F}
RHOB               .g/cm3                                  :  {F}
~Ascii
# ...
3729.937820799348 86.92348   81.20838   0.3194166  2.623842  
3730.089820791191 88.2617    84.49239   0.3193355  2.600094  
3730.241820783035 87.95576   90.46009   0.315272   2.595174  
3730.393820774878 88.49662   97.95599   0.3146858  2.599514  
3730.545820766722 88.51599   104.0874   0.3181645  2.602396  
3730.697820758565 89.30649   108.0889   0.3242982  2.600088  
3730.849820750408 89.62733   104.509    0.327655   2.593752  
3731.001820742252 88.90688   97.84757   0.3244412  2.58931   
3731.153820734095 89.04403   96.25733   0.3241616  2.591459  
3731.305820725938 88.50428   98.1654    0.3324698  2.598885  
3731.457820717782 88.07243   102.9064   0.3434247  2.604436  
3731.609820709625 88.71906   102.0892   0.3526446  2.603724  
3731.761820701468 89.106     100.0133   0.3580294  2.599043  
3731.913820693312 89.59005   100.5751   0.3547682  2.594571  
3732.065820685155 89.68915   101.7288   0.341225   2.594283  
3732.217820676999 87.90893   103.0578   0.3261881  2.596732  
3732.369820668842 87.1457    98.68069   0.3194564  2.597458  
3732.521820660686 86.69543   97.81285   0.3209716  2.595027  
3732.673820652529 86.5103    95.50401   0.3263517  2.594135  
3732.825820644372 86.81644   93.35423   0.3318209  2.599784  
3732.977820636216 86.95513   91.75703   0.3299075  2.610957  
3733.129820628059 85.96922   92.97097   0.3172728  2.621248  
3733.281820619903 85.34663   94.8811    0.3036696  2.624655  
3733.433820611746 84.13813   95.31727   0.2986014  2.623561  
3733.585820603589 82.83208   93.23918   0.296627   2.623342  
3733.737820595433 82.58933   89.4173    0.2903625  2.624196  
3733.889820587276 81.96033   83.16696   0.2827947  2.625338  
3734.041820579119 81.25457   81.67778   0.2809801  2.626594  
3734.193820570963 80.42683   82.57503   0.2872304  2.623747  
3734.345820562806 81.14342   86.69155   0.2959953  2.614091  
3734.497820554649 82.41084   90.3195    0.3031038  2.602572  
3734.649820546493 82.58831   91.2913    0.3090124  2.594344  
3734.801820538336 84.20455   89.92741   0.3121929  2.590559  
3734.95382053018 85.66524   86.05263   0.3088061  2.594829  
3735.105820522023 86.40471   86.14236   0.2993781  2.607491  
3735.257820513867 86.08497   84.38412   0.2948351  2.620475  
3735.40982050571 85.67342   85.64314   0.3027513  2.626884  
3735.561820497554 85.45692   85.80362   0.31813    2.624846  
3735.713820489397 85.99672   89.67607   0.3311361  2.617755  
3735.86582048124 86.84875   91.48756   0.3352564  2.613209  
3736.017820473084 87.233     90.25055   0.334455   2.614917  
3736.169820464927 87.09537   85.79243   0.3356773  2.617448  
3736.32182045677 87.2869    85.82139   0.3343919  2.611587  
3736.473820448614 85.85985   86.29575   0.3205563  2.596183  
3736.625820440457 85.25202   89.738     0.2962396  2.579405  
3736.7778204323 84.8679    89.00059   0.2788554  2.569435  
3736.929820424144 84.08381   90.29012   0.2812091  2.569512  
3737.081820415987 83.63873   89.18878   0.2951427  2.577868  
3737.233820407831 83.37894   89.93481   0.3065953  2.587988  
3737.385820399674 83.26956   90.62464   0.3089227  2.593583  
3737.537820391517 84.20781   94.43141   0.3044412  2.594011  
3737.689820383361 83.94814   93.94756   0.3018943  2.591573  
3737.841820375204 84.35789   90.60925   0.3034337  2.589703  
3737.993820367048 84.89592   86.04478   0.3046493  2.592162  
3738.145820358891 84.6953    86.49577   0.3052422  2.598301  
3738.297820350735 84.83782   88.35302   0.307328   2.602934  
3738.449820342578 84.55634   88.64235   0.3105265  2.60203   
3738.601820334421 83.9847    88.14816   0.3098341  2.59645   
3738.753820326265 83.5974    85.69279   0.3010909  2.590485  
3738.905820318108 83.43188   89.65832   0.2892274  2.58869   
3739.057820309951 83.83228   91.17541   0.2836014  2.596744  
3739.209820301795 83.88397   91.78378   0.2893655  2.617017  
3739.361820293638 81.93422   90.27689   0.304765   2.637444  
3739.513820285481 79.96863   87.9909    0.3240608  2.640071  
3739.665820277325 79.98319   88.51643   0.339274   2.623811  
3739.817820269168 81.27512   88.23675   0.3429749  2.606829  
3739.969820261012 83.181     87.72137   0.3328208  2.606671  
3740.121820252855 84.84732   86.40109   0.3138985  2.625805  
3740.273820244699 86.06926   83.22087   0.2974838  2.650297  
3740.425820236542 85.23683   80.06586   0.2927815  2.65982   
3740.577820228385 81.9992    79.37267   0.3007048  2.649429  
3740.729820220229 80.21074   84.27533   0.3127247  2.633595  
3740.881820212072 78.8748    88.38944   0.31879    2.624533  
3741.033820203916 82.63052   92.52992   0.3180706  2.620425  
3741.185820195759 84.77777   94.39682   0.3138891  2.617171  
3741.337820187602 86.05793   99.97747   0.3072061  2.614616  
3741.489820179446 86.57763   101.3609   0.2999962  2.612465  
3741.641820171289 87.67103   98.61844   0.2983266  2.611449  
3741.793820163132 88.67147   95.91812   0.3069991  2.612387  
3741.945820154976 88.37026   96.31529   0.3213963  2.612462  
3742.097820146819 87.46697   96.16039   0.3321024  2.608248  
3742.249820138662 88.55683   95.15003   0.3359929  2.601645  
3742.401820130506 89.14969   95.32221   0.3363521  2.596428  
3742.553820122349 89.68972   99.1243    0.3349185  2.593562  
3742.705820114193 90.02283   100.356    0.3304455  2.592749  
3742.857820106036 91.1728    103.4497   0.3236511  2.592849  
3743.00982009788 90.29686   102.6313   0.3173876  2.594724  
3743.161820089723 89.7373    101.9529   0.3123341  2.603402  
3743.313820081567 88.7845    95.75186   0.3081748  2.619765  
3743.46582007341 83.64011   92.34109   0.3088152  2.634132  
3743.617820065253 83.55395   94.58582   0.3167711  2.635698  
3743.769820057097 84.15778   100.198    0.3254067  2.625449  
3743.92182004894 86.31266   102.0091   0.3273171  2.612781  
3744.073820040783 87.98312   100.3898   0.3245227  2.603993  
3744.225820032627 95.9751    97.17629   0.3244773  2.599273  
3744.37782002447 91.11246   99.57164   0.3277265  2.596565  
3744.529820016313 88.45879   100.206    0.3273298  2.595451  
3744.681820008157 86.10734   101.7867   0.3213061  2.595301  
3744.83382 88.32053   100.2957   0.3167085  2.592834  
3744.985819991844 91.22906   99.08783   0.3204375  2.5869    
3745.137819983687 91.34204   99.10649   0.3291882  2.582265  
3745.28981997553 90.5915    103.3745   0.3342408  2.583024  
3745.441819967374 90.60429   104.7903   0.3348014  2.588202  
3745.593819959217 90.09427   103.8031   0.3364744  2.596233  
3745.745819951061 88.36841   102.7204   0.3399265  2.606028  
3745.897819942904 86.81561   102.6127   0.3395298  2.613664  
3746.049819934748 85.20245   98.58302   0.3303023  2.614721  
3746.201819926591 84.57583   90.36124   0.3142265  2.610538  
3746.353819918434 87.79551   88.17915   0.2991374  2.607455  
3746.505819910278 81.96607   87.66077   0.2923085  2.609663  
3746.657819902121 81.95301   92.16502   0.2938687  2.61649   
3746.809819893964 85.21648   91.85347   0.299156   2.62425   
3746.961819885808 85.01471   94.17857   0.3059967  2.628736  
3747.113819877651 86.84683   92.94735   0.3121166  2.629306  
3747.265819869494 88.51402   90.43293   0.3154365  2.628111  
3747.417819861338 86.83218   92.31731   0.3162521  2.626117  
3747.569819853181 86.41482   90.93153   0.3156071  2.624161  
3747.721819845025 86.92284   89.2203    0.3151986  2.623597  
3747.873819836868 86.80036   84.99583   0.3158915  2.624194  
3748.025819828712 87.86713   87.88857   0.3165986  2.625389  
3748.177819820555 88.00353   93.25347   0.3140384  2.628911  
3748.329819812398 88.11434   95.01927   0.3076033  2.633819  
3748.481819804242 88.119     93.3192    0.3030114  2.632944  
3748.633819796085 87.20968   91.13155   0.3036787  2.623047  
3748.785819787929 84.68953   91.76646   0.3062844  2.612108  
3748.937819779772 85.36894   92.55478   0.3065128  2.607803  
3749.089819771616 85.61957   94.51416   0.3044663  2.605283  
3749.241819763459 87.84252   97.86603   0.3056659  2.596344  
3749.393819755302 88.7878    102.1164   0.3152469  2.583143  
3749.545819747146 87.21643   104.1181   0.3302398  2.574726  
