~Version
 VERS              .         3.0                           : CWLS LOG ASCII STANDARD - VERSION 3.0
 WRAP              .         NO                            : ONE LINE PER DEPTH STEP
 DLM               .         SPACE                         : DELIMITING CHARACTER(SPACE TAB OR COMMA)
~Well Information
#_______________________________________________________________________________
#
#PARAMETER_NAME    .UNIT     VALUE                         : DESCRIPTION
#_______________________________________________________________________________
STRT               .m        390.498                       : First reference value
STOP               .m        3963.10580828711              : Last reference value
STEP               .m        0.152                         : Step increment
NULL               .         -9999                         : Missing value
COMP               .         GULF                          : Company
WELL               .         35/8-3                        : Well name
FLD                .                                       : Field
LOC                .         UNKNOWN                       : Location
SRVC               .         UNKNOWN                       : Service Company
CTRY               .         UN                            : Country
DATE               .                                       : Service Date
X                  .                                       : X or East-West coordinate
Y                  .                                       : Y or North South coordinate
GDAT               .                                       : Geodetic Datum
HZCS               .                                       : Horizontal Co-ordinate System
API                .         526                           : API NUMBER
CNTY               .         UNKNOWN                       : LOCATION
COUNTRY            .         UNKNOWN                       : COUNTRY
ELEV               .M        -999.250000                   : SURFACE ELEV
ELEV_TYPE___________________________________________23 .000000KB                               : ELEV TYPE
LAT                .         61.351486                     : LATITUDE
LON                .         3.534064                      : LONGITUDE
STAT               .         UNKNOWN                       : STATE
XCOORD             .         528566.790000                 : SURFACE X
YCOORD             .         6802217.370000                : SURFACE Y
~Parameter Information Block
#_______________________________________________________________________________
#
#PARAMETER_NAME    .UNIT     VALUE                         : DESCRIPTION
#_______________________________________________________________________________
SET                .         Dataset                       : 
TLFamily_DT        .         Compressional Slowness        : 
TLFamily_GR        .         Gamma Ray                     : 
TLFamily_MD        .         Measured Depth                : 
TLFamily_NPHI      .         Neutron Porosity              : 
TLFamily_RHOB      .         Bulk Density                  : 
~Curve Information
#_______________________________________________________________________________
#
#LOGNAME           .UNIT     LOG_ID                        : DESCRIPTION
#_______________________________________________________________________________
MD                 .m                                      :  {F}
DT                 .us/ft                                  :  {F}
GR                 .gAPI                                   :  {F}
NPHI               .                                       :  {F}
RHOB               .g/cm3                                  :  {F}
~Ascii
# ...
1042.577965008157 140.0613   16.6835    -9999      -9999     
1042.729965 142.4617   15.30672   -9999      -9999     
1042.881964991843 148.1844   18.7877    -9999      -9999     
1043.033964983687 150.4667   19.92124   -9999      -9999     
1043.18596497553 152.0241   22.073     -9999      -9999     
1043.337964967374 152.6541   22.03571   -9999      -9999     
1043.489964959217 151.4604   22.86571   -9999      -9999     
1043.64196495106 152.5877   24.70877   -9999      -9999     
1043.793964942904 154.6      25.48632   -9999      -9999     
1043.945964934747 153.2763   27.35367   -9999      -9999     
1044.097964926591 145.9511   28.68669   -9999      -9999     
1044.249964918434 142.2487   30.91229   -9999      -9999     
1044.401964910277 140.1757   32.92183   -9999      -9999     
1044.553964902121 141.0406   33.3498    -9999      -9999     
1044.705964893964 142.4405   31.1998    -9999      -9999     
1044.857964885808 144.2748   30.50936   -9999      -9999     
1045.009964877651 144.024    28.47577   -9999      -9999     
1045.161964869494 147.341    28.76473   -9999      -9999     
1045.313964861338 149.0266   28.63443   -9999      -9999     
1045.465964853181 148.3145   32.12489   -9999      -9999     
1045.617964845025 144.7767   33.59046   -9999      -9999     
1045.769964836868 140.2117   36.45274   -9999      -9999     
1045.921964828711 139.2885   35.53601   -9999      -9999     
1046.073964820555 140.8488   35.58339   -9999      -9999     
1046.225964812398 145.1903   36.66745   -9999      -9999     
1046.377964804241 150.3455   36.88525   -9999      -9999     
1046.529964796085 153.8836   36.62566   -9999      -9999     
1046.681964787928 156.4957   36.22959   -9999      -9999     
1046.833964779772 158.7514   35.67013   -9999      -9999     
1046.985964771615 157.1893   35.78267   -9999      -9999     
1047.137964763459 154.5152   31.97148   -9999      -9999     
1047.289964755302 151.8554   31.31975   -9999      -9999     
1047.441964747145 148.3238   32.05273   -9999      -9999     
1047.593964738989 144.5351   33.48057   -9999      -9999     
1047.745964730832 140.7541   35.17711   -9999      -9999     
1047.897964722675 137.1663   35.82705   -9999      -9999     
1048.049964714519 137.8476   36.35398   -9999      -9999     
1048.201964706362 140.4619   31.90643   -9999      -9999     
1048.353964698206 142.7464   29.93476   -9999      -9999     
1048.505964690049 144.6873   30.34011   -9999      -9999     
1048.657964681892 144.2174   33.18314   -9999      -9999     
1048.809964673736 142.5158   33.01564   -9999      -9999     
1048.961964665579 139.6008   33.36462   -9999      -9999     
1049.113964657422 136.0456   34.31008   -9999      -9999     
1049.265964649266 135.9502   34.48666   -9999      -9999     
1049.417964641109 137.48     30.90573   -9999      -9999     
1049.569964632953 141.1476   29.08652   -9999      -9999     
1049.721964624796 144.7907   30.71242   -9999      -9999     
1049.87396461664 147.9078   32.07458   -9999      -9999     
1050.025964608483 147.6843   34.02805   -9999      -9999     
1050.177964600326 146.725    34.68045   -9999      -9999     
1050.32996459217 144.3542   37.17032   -9999      -9999     
1050.481964584013 141.0325   40.1716    -9999      -9999     
1050.633964575856 138.2256   39.23572   -9999      -9999     
1050.7859645677 136.4241   37.45272   -9999      -9999     
1050.937964559543 136.672    36.99091   -9999      -9999     
1051.089964551387 138.4461   37.91219   -9999      -9999     
1051.24196454323 139.8503   36.93093   -9999      -9999     
1051.393964535074 141.3867   31.04737   -9999      -9999     
1051.545964526917 141.8021   30.09432   -9999      -9999     
1051.69796451876 141.3109   31.50937   -9999      -9999     
1051.849964510604 142.9863   34.25396   -9999      -9999     
1052.001964502447 143.9499   35.68787   -9999      -9999     
1052.15396449429 144.2223   33.49991   -9999      -9999     
1052.305964486134 144.2525   32.08903   -9999      -9999     
1052.457964477977 142.6146   28.70279   -9999      -9999     
1052.609964469821 139.5366   28.39717   -9999      -9999     
1052.761964461664 137.6303   29.61432   -9999      -9999     
1052.913964453507 138.7009   29.1843    -9999      -9999     
1053.065964445351 142.5991   29.07393   -9999      -9999     
1053.217964437194 146.7139   26.58448   -9999      -9999     
1053.369964429038 150.9278   26.39984   -9999      -9999     
1053.521964420881 153.4988   28.04331   -9999      -9999     
1053.673964412724 153.2123   28.78833   -9999      -9999     
1053.825964404568 150.8256   30.23266   -9999      -9999     
1053.977964396411 146.2681   31.33134   -9999      -9999     
1054.129964388255 142.0612   31.7697    -9999      -9999     
1054.281964380098 138.0327   30.10489   -9999      -9999     
1054.433964371941 135.5399   28.55786   -9999      -9999     
1054.585964363785 135.8579   29.24254   -9999      -9999     
1054.737964355628 136.2794   30.85092   -9999      -9999     
1054.889964347472 136.4622   30.52368   -9999      -9999     
1055.041964339315 135.9665   31.42909   -9999      -9999     
1055.193964331158 134.3923   31.06189   -9999      -9999     
1055.345964323002 132.276    29.39959   -9999      -9999     
1055.497964314845 130.4489   26.73962   -9999      -9999     
1055.649964306688 131.004    29.52854   -9999      -9999     
1055.801964298532 134.9137   36.60954   -9999      -9999     
1055.953964290375 142.5367   40.11367   -9999      -9999     
1056.105964282219 149.6663   38.32082   -9999      -9999     
1056.257964274062 152.7092   33.98822   -9999      -9999     
1056.409964265906 148.3027   30.9902    -9999      -9999     
1056.561964257749 141.1892   28.06519   -9999      -9999     
1056.713964249592 137.3764   27.04114   -9999      -9999     
1056.865964241436 134.276    26.84175   -9999      -9999     
1057.017964233279 132.9828   30.06024   -9999      -9999     
1057.169964225122 135.0544   32.37206   -9999      -9999     
1057.321964216966 139.4799   34.41612   -9999      -9999     
1057.473964208809 144.5848   35.2719    -9999      -9999     
1057.625964200653 148.4458   36.15419   -9999      -9999     
1057.777964192496 149.3408   35.68651   -9999      -9999     
1057.929964184339 146.5111   31.30673   -9999      -9999     
1058.081964176183 140.041    27.24106   -9999      -9999     
1058.233964168026 134.7567   25.1276    -9999      -9999     
1058.385964159869 134.563    29.39559   -9999      -9999     
1058.537964151713 137.7346   32.04218   -9999      -9999     
1058.689964143556 139.8378   33.78979   -9999      -9999     
1058.8419641354 139.8566   34.6237    -9999      -9999     
1058.993964127243 139.2765   32.95589   -9999      -9999     
1059.145964119087 136.4325   31.74599   -9999      -9999     
1059.29796411093 135.4032   31.12705   -9999      -9999     
1059.449964102773 137.8481   34.00492   -9999      -9999     
1059.601964094617 141.5597   35.95634   -9999      -9999     
1059.75396408646 144.87     31.43417   -9999      -9999     
1059.905964078303 145.6098   28.36493   -9999      -9999     
1060.057964070147 143.352    27.85432   -9999      -9999     
1060.20996406199 137.226    28.61982   -9999      -9999     
1060.361964053834 132.3231   28.79586   -9999      -9999     
1060.513964045677 129.958    28.58475   -9999      -9999     
1060.665964037521 130.2106   29.8358    -9999      -9999     
1060.817964029364 134.1034   30.56973   -9999      -9999     
1060.969964021207 140.6372   32.51024   -9999      -9999     
1061.121964013051 147.2903   34.2116    -9999      -9999     
1061.273964004894 154.1438   34.50273   -9999      -9999     
1061.425963996737 158.2158   34.53909   -9999      -9999     
1061.577963988581 160.7387   35.21994   -9999      -9999     
1061.729963980424 160.2025   36.96798   -9999      -9999     
1061.881963972268 157.0318   34.91239   -9999      -9999     
1062.033963964111 152.2065   33.98832   -9999      -9999     
1062.185963955954 143.5356   33.18289   -9999      -9999     
