~Version
 VERS              .         3.0                           : CWLS LOG ASCII STANDARD - VERSION 3.0
 WRAP              .         NO                            : ONE LINE PER DEPTH STEP
 DLM               .         SPACE                         : DELIMITING CHARACTER(SPACE TAB OR COMMA)
~Well Information
#_______________________________________________________________________________
#
#PARAMETER_NAME    .UNIT     VALUE                         : DESCRIPTION
#_______________________________________________________________________________
STRT               .m        390.498                       : First reference value
STOP               .m        3963.10580828711              : Last reference value
STEP               .m        0.152                         : Step increment
NULL               .         -9999                         : Missing value
COMP               .         GULF                          : Company
WELL               .         35/8-3                        : Well name
FLD                .                                       : Field
LOC                .         UNKNOWN                       : Location
SRVC               .         UNKNOWN                       : Service Company
CTRY               .         UN                            : Country
DATE               .                                       : Service Date
X                  .                                       : X or East-West coordinate
Y                  .                                       : Y or North South coordinate
GDAT               .                                       : Geodetic Datum
HZCS               .                                       : Horizontal Co-ordinate System
API                .         526                           : API NUMBER
CNTY               .         UNKNOWN                       : LOCATION
COUNTRY            .         UNKNOWN                       : COUNTRY
ELEV               .M        -999.250000                   : SURFACE ELEV
ELEV_TYPE___________________________________________23 .000000KB                               : ELEV TYPE
LAT                .         61.351486                     : LATITUDE
LON                .         3.534064                      : LONGITUDE
STAT               .         UNKNOWN                       : STATE
XCOORD             .         528566.790000                 : SURFACE X
YCOORD             .         6802217.370000                : SURFACE Y
~Parameter Information Block
#_______________________________________________________________________________
#
#PARAMETER_NAME    .UNIT     VALUE                         : DESCRIPTION
#_______________________________________________________________________________
SET                .         Dataset                       : 
TLFamily_DT        .         Compressional Slowness        : 
TLFamily_GR        .         Gamma Ray                     : 
TLFamily_MD        .         Measured Depth                : 
TLFamily_NPHI      .         Neutron Porosity              : 
TLFamily_RHOB      .         Bulk Density                  : 
~Curve Information
#_______________________________________________________________________________
#
#LOGNAME           .UNIT     LOG_ID                        : DESCRIPTION
#_______________________________________________________________________________
MD                 .m                                      :  {F}
DT                 .us/ft                                  :  {F}
GR                 .gAPI                                   :  {F}
NPHI               .                                       :  {F}
RHOB               .g/cm3                                  :  {F}
~Ascii
# ...
2702.41787593801 92.27493   86.42805   0.2565788  2.488266  
2702.569875929853 92.64464   83.78652   0.2535655  2.492718  
2702.721875921697 92.94636   78.7404    0.2517118  2.495491  
2702.87387591354 92.57026   77.98782   0.2532153  2.495755  
2703.025875905384 93.47955   78.06188   0.2628413  2.495055  
2703.177875897227 93.78845   86.84101   0.2800536  2.493715  
2703.329875889071 94.46659   89.20763   0.2976369  2.490828  
2703.481875880914 94.09696   93.85636   0.3061389  2.486437  
2703.633875872757 93.39971   90.61202   0.3008902  2.481388  
2703.785875864601 93.36591   88.90437   0.2870154  2.476337  
2703.937875856444 93.11724   87.5995    0.2751099  2.473061  
2704.089875848287 92.75845   88.59444   0.2702611  2.475009  
2704.241875840131 92.7679    88.42952   0.2684163  2.482135  
2704.393875831974 93.24152   92.11652   0.2652803  2.488767  
2704.545875823817 93.63934   93.12764   0.2634463  2.489965  
2704.697875815661 94.34708   96.13502   0.2664093  2.486585  
2704.849875807504 94.3802    92.40549   0.2700867  2.482476  
2705.001875799348 94.49689   90.35353   0.2699655  2.479863  
2705.153875791191 94.35682   89.37455   0.2684074  2.478704  
2705.305875783034 93.53233   89.62576   0.2674074  2.478843  
2705.457875774878 93.37822   95.97439   0.2649789  2.480581  
2705.609875766721 93.11544   93.49339   0.2611281  2.483624  
2705.761875758565 92.29233   92.31469   0.2616138  2.487518  
2705.913875750408 92.48377   88.41952   0.2701098  2.491917  
2706.065875742252 92.14205   91.10727   0.279896   2.496023  
2706.217875734095 91.87195   90.46071   0.281334   2.497752  
2706.369875725938 90.43223   89.31068   0.2723006  2.497157  
2706.521875717782 89.90479   89.76892   0.258208   2.498868  
2706.673875709625 90.83066   88.44911   0.245874   2.503612  
2706.825875701468 92.0754    89.93697   0.2414404  2.505757  
2706.977875693312 93.90941   92.31942   0.2493905  2.502689  
2707.129875685155 94.11877   91.0704    0.2649787  2.497586  
2707.281875676998 93.88774   89.87289   0.2761571  2.493228  
2707.433875668842 93.16582   86.32656   0.2797897  2.489133  
2707.585875660685 93.47715   87.30374   0.2846379  2.484831  
2707.737875652529 94.43785   87.42487   0.2941216  2.481715  
2707.889875644372 95.08869   90.07157   0.2999926  2.48006   
2708.041875636216 95.01552   91.3047    0.2963621  2.47743   
2708.193875628059 93.48595   92.45541   0.2852528  2.474021  
2708.345875619902 92.78841   88.42365   0.2689391  2.47457   
2708.497875611746 92.63062   87.39207   0.2519124  2.480787  
2708.649875603589 92.73199   90.03587   0.2447419  2.488745  
2708.801875595433 93.67365   90.16367   0.2520979  2.49319   
2708.953875587276 94.21072   87.7073    0.2635827  2.49193   
2709.105875579119 94.71602   81.24514   0.2672148  2.487043  
2709.257875570963 94.52153   87.27983   0.2659537  2.481391  
2709.409875562806 94.61668   90.98691   0.2691975  2.477171  
2709.561875554649 94.40224   97.35757   0.2752137  2.477326  
2709.713875546493 93.92078   88.26196   0.2748922  2.482448  
2709.865875538336 93.65655   87.14169   0.2664336  2.487626  
2710.017875530179 92.82973   87.24848   0.2586803  2.488413  
2710.169875522023 92.74651   93.54888   0.261526   2.486121  
2710.321875513866 92.63441   94.46506   0.2758609  2.483074  
2710.47387550571 92.73458   90.53353   0.2918038  2.478888  
2710.625875497553 92.86548   87.98701   0.2955429  2.472901  
2710.777875489397 92.76652   88.87466   0.2821569  2.467134  
2710.92987548124 92.63942   88.12352   0.2627302  2.466475  
2711.081875473084 92.51442   87.37722   0.2535044  2.472978  
2711.233875464927 92.39043   87.22302   0.2585694  2.481151  
2711.38587545677 92.25762   90.88171   0.2684841  2.482924  
2711.537875448614 92.46197   90.77181   0.2738867  2.477014  
2711.689875440457 92.83384   91.69295   0.2751448  2.469447  
2711.841875432301 92.87299   88.98933   0.2764852  2.465264  
2711.993875424144 93.08576   86.76516   0.2776971  2.46632   
2712.145875415987 93.47154   86.95917   0.2764715  2.472833  
2712.297875407831 92.94939   87.73338   0.2728325  2.481439  
2712.449875399674 93.18246   91.31512   0.2695163  2.48491   
2712.601875391517 93.67912   92.17107   0.2698778  2.475481  
2712.753875383361 94.08013   88.72466   0.2745526  2.454973  
2712.905875375204 94.1461    86.07773   0.2795241  2.4398    
2713.057875367047 93.61469   85.74046   0.2799207  2.445218  
2713.209875358891 92.64156   87.12438   0.2734262  2.467305  
2713.361875350734 92.29435   86.4911    0.2607125  2.487104  
2713.513875342578 91.63411   87.36026   0.2479755  2.493798  
2713.665875334421 90.62526   88.27805   0.2438837  2.493309  
2713.817875326265 90.80827   85.03673   0.2492856  2.492257  
2713.969875318108 90.77291   82.44012   0.25503    2.491406  
2714.121875309952 90.69441   84.296     0.2553655  2.489621  
2714.273875301795 92.22625   89.09382   0.2560241  2.485589  
2714.425875293638 92.54105   87.94419   0.2620364  2.482161  
2714.577875285482 92.09158   87.04984   0.2683212  2.484208  
2714.729875277325 91.81355   87.0693    0.2680833  2.49109   
2714.881875269168 91.01853   87.87377   0.2618592  2.49786   
2715.033875261012 90.77473   85.01807   0.2563715  2.501782  
2715.185875252855 90.35857   82.13258   0.2570182  2.503985  
2715.337875244698 89.59622   78.06287   0.2610719  2.504606  
2715.489875236542 90.08881   72.34113   0.2611281  2.500998  
2715.641875228385 90.67341   71.50674   0.2547666  2.493267  
2715.793875220229 90.7123    73.53407   0.2483774  2.485646  
2715.945875212072 91.70744   79.95825   0.2486182  2.482155  
2716.097875203915 93.41283   82.64597   0.2535093  2.482145  
2716.249875195759 94.48402   83.8689    0.2580241  2.4825    
2716.401875187602 94.88443   86.59486   0.2615241  2.483584  
2716.553875179446 94.15422   86.26235   0.2646793  2.489084  
2716.705875171289 92.30771   83.07252   0.263637   2.501383  
2716.857875163133 90.68147   74.04937   0.2542529  2.515459  
2717.009875154976 89.43831   68.75666   0.242471   2.521257  
2717.161875146819 89.27532   71.90668   0.2410975  2.513953  
2717.313875138663 90.36713   80.80145   0.253222   2.499216  
2717.465875130506 90.68545   87.64448   0.2664334  2.48795   
2717.617875122349 89.92572   90.86868   0.2689311  2.486372  
2717.769875114193 89.89631   87.91598   0.2649774  2.492783  
2717.921875106036 90.59859   89.86818   0.2655137  2.500897  
2718.073875097879 90.66199   92.2784    0.2696748  2.505633  
2718.225875089723 90.7049    99.51572   0.2675577  2.505519  
2718.377875081566 91.03785   101.7365   0.2576888  2.50154   
2718.52987507341 91.20717   97.23804   0.2500237  2.496682  
2718.681875065253 91.61203   88.28837   0.2497793  2.494056  
2718.833875057097 92.2366    86.53119   0.2512493  2.494684  
2718.98587504894 92.49126   87.79739   0.2527778  2.496687  
2719.137875040783 92.4435    95.29537   0.2598664  2.497649  
2719.289875032627 91.80151   93.39281   0.2717575  2.498636  
2719.44187502447 91.57304   87.87901   0.28076    2.501669  
2719.593875016314 92.1804    81.39027   0.2823178  2.504736  
2719.745875008157 92.59323   82.6035    0.2778489  2.504764  
2719.897875 92.49291   88.83768   0.2705592  2.502815  
2720.049874991844 91.60584   92.85574   0.26517    2.502244  
2720.201874983687 91.56251   89.29809   0.2661645  2.504079  
2720.35387497553 91.21945   82.17238   0.2705211  2.506928  
2720.505874967374 91.62123   81.63509   0.272303   2.510617  
2720.657874959217 92.59894   81.74769   0.2720507  2.515659  
2720.80987495106 93.28629   83.87625   0.2723448  2.519732  
2720.961874942904 94.60468   83.50126   0.2744241  2.51903   
2721.113874934747 95.33887   87.08281   0.2800423  2.513552  
2721.265874926591 95.07944   88.26001   0.2878423  2.50734   
2721.417874918434 94.10976   87.6579    0.2916029  2.501349  
2721.569874910278 92.857     88.36139   0.2870651  2.494552  
2721.721874902121 91.84467   91.77704   0.2798907  2.489916  
2721.873874893965 91.41367   94.73971   0.2746863  2.490376  
2722.025874885808 91.4501    88.7101    0.2678159  2.495054  
