~Version
 VERS              .         3.0                           : CWLS LOG ASCII STANDARD - VERSION 3.0
 WRAP              .         NO                            : ONE LINE PER DEPTH STEP
 DLM               .         SPACE                         : DELIMITING CHARACTER(SPACE TAB OR COMMA)
~Well Information
#_______________________________________________________________________________
#
#PARAMETER_NAME    .UNIT     VALUE                         : DESCRIPTION
#_______________________________________________________________________________
STRT               .m        390.498                       : First reference value
STOP               .m        3963.10580828711              : Last reference value
STEP               .m        0.152                         : Step increment
NULL               .         -9999                         : Missing value
COMP               .         GULF                          : Company
WELL               .         35/8-3                        : Well name
FLD                .                                       : Field
LOC                .         UNKNOWN                       : Location
SRVC               .         UNKNOWN                       : Service Company
CTRY               .         UN                            : Country
DATE               .                                       : Service Date
X                  .                                       : X or East-West coordinate
Y                  .                                       : Y or North South coordinate
GDAT               .                                       : Geodetic Datum
HZCS               .                                       : Horizontal Co-ordinate System
API                .         526                           : API NUMBER
CNTY               .         UNKNOWN                       : LOCATION
COUNTRY            .         UNKNOWN                       : COUNTRY
ELEV               .M        -999.250000                   : SURFACE ELEV
ELEV_TYPE___________________________________________23 .000000KB                               : ELEV TYPE
LAT                .         61.351486                     : LATITUDE
LON                .         3.534064                      : LONGITUDE
STAT               .         UNKNOWN                       : STATE
XCOORD             .         528566.790000                 : SURFACE X
YCOORD             .         6802217.370000                : SURFACE Y
~Parameter Information Block
#_______________________________________________________________________________
#
#PARAMETER_NAME    .UNIT     VALUE                         : DESCRIPTION
#_______________________________________________________________________________
SET                .         Dataset                       : 
TLFamily_DT        .         Compressional Slowness        : 
TLFamily_GR        .         Gamma Ray                     : 
TLFamily_MD        .         Measured Depth                : 
TLFamily_NPHI      .         Neutron Porosity              : 
TLFamily_RHOB      .         Bulk Density                  : 
~Curve Information
#_______________________________________________________________________________
#
#LOGNAME           .UNIT     LOG_ID                        : DESCRIPTION
#_______________________________________________________________________________
MD                 .m                                      :  {F}
DT                 .us/ft                                  :  {F}
GR                 .gAPI                                   :  {F}
NPHI               .                                       :  {F}
RHOB               .g/cm3                                  :  {F}
~Ascii
# ...
2485.057887601958 103.0984   92.09499   0.3430098  2.424136  
2485.209887593801 102.086    89.55771   0.3289951  2.425888  
2485.361887585645 101.3202   88.52258   0.3185078  2.430149  
2485.513887577488 99.86982   91.41056   0.3133176  2.444884  
2485.665887569332 98.26053   91.35621   0.3132332  2.477388  
2485.817887561175 98.2456    88.60153   0.3161244  2.521171  
2485.969887553018 98.75906   88.6471    0.3190332  2.547202  
2486.121887544862 99.09037   89.67751   0.3208405  2.530201  
2486.273887536705 100.9046   92.96073   0.3218449  2.484469  
2486.425887528548 101.9018   95.11433   0.3218058  2.444859  
2486.577887520392 102.1359   99.09977   0.3175571  2.426508  
2486.729887512235 101.7625   100.0904   0.3068995  2.421318  
2486.881887504078 101.2047   96.4948    0.29394    2.420248  
2487.033887495922 101.4723   95.13892   0.2827732  2.422568  
2487.185887487765 102.1151   89.43227   0.2746947  2.425835  
2487.337887479609 102.2469   88.65016   0.2721912  2.426506  
2487.489887471452 102.5205   90.72383   0.2784658  2.426297  
2487.641887463295 102.9128   94.66497   0.2940551  2.427485  
2487.793887455139 103.0804   97.56387   0.3122292  2.429535  
2487.945887446982 103.5016   98.11775   0.3219795  2.431536  
2488.097887438826 103.7491   96.39365   0.318621   2.433929  
2488.249887430669 103.472    93.19907   0.3079849  2.436041  
2488.401887422513 103.3114   92.12349   0.3009176  2.435715  
2488.553887414356 104.2067   94.32512   0.3027053  2.434602  
2488.705887406199 104.6456   97.76772   0.3115644  2.436323  
2488.857887398043 105.786    91.7187    0.3254814  2.439284  
2489.009887389886 106.0977   90.30962   0.338479   2.438134  
2489.161887381729 105.5709   95.67386   0.3408873  2.431711  
2489.313887373573 104.9305   97.80342   0.3319937  2.424889  
2489.465887365416 104.2625   96.10255   0.3206225  2.421264  
2489.617887357259 104.2523   89.94531   0.3140727  2.418871  
2489.769887349103 104.9307   91.45318   0.3137317  2.414937  
2489.921887340946 105.0344   90.12971   0.3196805  2.411021  
2490.07388733279 105.3217   86.04424   0.3307078  2.410438  
2490.225887324633 104.7172   83.6614    0.3393171  2.413221  
2490.377887316477 103.6318   84.22775   0.3377571  2.420078  
2490.52988730832 103.3333   83.86743   0.3290703  2.437368  
2490.681887300163 103.5178   84.24797   0.3224756  2.465914  
2490.833887292007 103.9691   85.23772   0.3205029  2.48767   
2490.98588728385 105.6796   89.9467    0.3193639  2.483248  
2491.137887275694 106.3387   90.75683   0.3202229  2.459451  
2491.289887267537 105.7892   91.02308   0.3321507  2.438405  
2491.44188725938 105.9577   92.12461   0.3526492  2.429425  
2491.593887251224 106.1101   93.66957   0.3638883  2.42568   
2491.745887243067 106.4791   93.77689   0.3580488  2.420053  
2491.89788723491 106.559    89.94152   0.3426274  2.414232  
2492.049887226754 106.4253   85.2186    0.3258186  2.41136   
2492.201887218597 106.1722   82.19115   0.3109488  2.410602  
2492.35388721044 106.4599   78.78619   0.3038044  2.410796  
2492.505887202284 106.6314   77.36112   0.3065546  2.412677  
2492.657887194127 106.7111   74.50814   0.3071873  2.416763  
2492.809887185971 106.782    73.57587   0.2996732  2.419891  
2492.961887177814 106.4638   72.92046   0.295339   2.418332  
2493.113887169658 105.6477   74.65726   0.2996473  2.414967  
2493.265887161501 105.4197   74.89928   0.3033493  2.41848   
2493.417887153345 104.59     77.14181   0.3011337  2.431429  
2493.569887145188 103.4583   77.25249   0.2989971  2.44517   
2493.721887137031 103.7682   78.96175   0.3029936  2.451144  
2493.873887128875 104.3917   80.62196   0.3105458  2.447412  
2494.025887120718 105.5604   85.52238   0.3160737  2.434971  
2494.177887112562 106.8915   85.87017   0.3194766  2.417732  
2494.329887104405 107.4501   88.41949   0.3256326  2.405496  
2494.481887096248 107.4812   86.1028    0.3349312  2.405552  
2494.633887088092 107.8238   89.02825   0.3369903  2.41161   
2494.785887079935 108.0156   89.19528   0.3250362  2.411937  
2494.937887071778 108.0013   90.63468   0.3137771  2.404867  
2495.089887063622 108.0074   90.46591   0.3197829  2.398722  
2495.241887055465 107.9503   93.86231   0.3322355  2.399269  
2495.393887047308 107.5763   95.52096   0.3338917  2.404898  
2495.545887039152 107.086    96.87888   0.3339068  2.411505  
2495.697887030995 107.3708   91.33418   0.3502516  2.415881  
2495.849887022839 107.7516   89.60764   0.3732623  2.417299  
2496.001887014682 107.4004   91.47914   0.3832927  2.417203  
2496.153887006526 107.7063   92.7496    0.383258   2.416458  
2496.305886998369 108.0059   92.49952   0.3850648  2.415161  
2496.457886990213 107.2211   91.04312   0.388781   2.413563  
2496.609886982056 107.2454   91.10249   0.3885727  2.411715  
2496.761886973899 107.2912   93.72448   0.3870493  2.409616  
2496.913886965743 107.122    94.74532   0.3856713  2.406825  
2497.065886957586 107.1241   96.81512   0.3791747  2.404509  
2497.217886949429 106.2155   96.11276   0.3730147  2.406708  
2497.369886941273 106.044    90.40529   0.3737244  2.414675  
2497.521886933116 105.8701   87.13388   0.3805746  2.425319  
2497.673886924959 105.8278   87.1308    0.3856522  2.432575  
2497.825886916803 106.0105   88.60237   0.377026   2.432526  
2497.977886908646 105.9784   90.04648   0.3598752  2.429321  
2498.12988690049 106.1575   89.81683   0.3433172  2.428196  
2498.281886892333 107.057    92.26189   0.3327366  2.427613  
2498.433886884176 106.4872   91.98302   0.3281308  2.425123  
2498.58588687602 106.3401   91.9623    0.324522   2.423993  
2498.737886867863 106.6809   90.7807    0.3263502  2.426323  
2498.889886859707 106.8443   88.79637   0.3316722  2.429974  
2499.04188685155 106.9643   87.99837   0.3359649  2.430618  
2499.193886843394 106.6519   85.61451   0.3358381  2.425015  
2499.345886835237 106.5496   84.65009   0.3307366  2.417002  
2499.49788682708 106.6905   84.01556   0.3282985  2.413597  
2499.649886818924 106.8164   85.84834   0.3282522  2.414834  
2499.801886810767 106.926    88.06321   0.3242078  2.415851  
2499.95388680261 107.2651   85.84309   0.3112333  2.414519  
2500.105886794454 106.8697   89.64097   0.2962849  2.414037  
2500.257886786297 106.9347   91.84761   0.2878873  2.416575  
2500.40988677814 106.3117   91.25025   0.2950057  2.417955  
2500.561886769984 103.1391   87.8143    0.3152969  2.418191  
2500.713886761827 98.05404   85.13403   0.3255059  2.430772  
2500.865886753671 95.94749   86.84365   0.3120441  2.476996  
2501.017886745514 96.19168   86.55962   0.2884016  2.553827  
2501.169886737358 98.35781   90.56935   0.2832702  2.605326  
2501.321886729201 103.6598   94.049     0.300033   2.579708  
2501.473886721044 106.3789   98.89548   0.3189901  2.506515  
2501.625886712888 106.4392   98.47224   0.3274868  2.448531  
2501.777886704731 106.1768   95.71165   0.3250991  2.423828  
2501.929886696575 105.8656   94.24823   0.3167732  2.415937  
2502.081886688418 106.4503   96.85087   0.3098278  2.414582  
2502.233886680261 106.9131   101.9928   0.309378   2.420234  
2502.385886672105 106.8974   100.037    0.3143487  2.429332  
2502.537886663948 106.1178   94.09332   0.3178015  2.43671   
2502.689886655791 105.0864   89.27672   0.3130196  2.440436  
2502.841886647635 101.5857   85.94449   0.3022386  2.442681  
2502.993886639478 98.2018    80.36299   0.2930947  2.445724  
2503.145886631321 98.10891   77.68803   0.2901971  2.447155  
2503.297886623165 100.9243   78.69041   0.2920751  2.443992  
2503.449886615008 105.6876   84.57388   0.297298   2.437553  
2503.601886606852 108.3875   90.06582   0.3073541  2.43055   
2503.753886598695 108.3183   91.84674   0.3199121  2.425523  
2503.905886590539 107.1861   91.8519    0.3280692  2.424935  
2504.057886582382 105.953    91.94709   0.3277859  2.43206   
2504.209886574225 104.9762   93.21619   0.3222947  2.452982  
2504.361886566069 105.2261   94.66457   0.3205795  2.486132  
2504.513886557912 105.5902   93.76118   0.3252024  2.511597  
2504.665886549756 104.8402   90.61089   0.3303722  2.508649  
