~Version
 VERS              .         3.0                           : CWLS LOG ASCII STANDARD - VERSION 3.0
 WRAP              .         NO                            : ONE LINE PER DEPTH STEP
 DLM               .         SPACE                         : DELIMITING CHARACTER(SPACE TAB OR COMMA)
~Well Information
#_______________________________________________________________________________
#
#PARAMETER_NAME    .UNIT     VALUE                         : DESCRIPTION
#_______________________________________________________________________________
STRT               .m        390.498                       : First reference value
STOP               .m        3963.10580828711              : Last reference value
STEP               .m        0.152                         : Step increment
NULL               .         -9999                         : Missing value
COMP               .         GULF                          : Company
WELL               .         35/8-3                        : Well name
FLD                .                                       : Field
LOC                .         UNKNOWN                       : Location
SRVC               .         UNKNOWN                       : Service Company
CTRY               .         UN                            : Country
DATE               .                                       : Service Date
X                  .                                       : X or East-West coordinate
Y                  .                                       : Y or North South coordinate
GDAT               .                                       : Geodetic Datum
HZCS               .                                       : Horizontal Co-ordinate System
API                .         526                           : API NUMBER
CNTY               .         UNKNOWN                       : LOCATION
COUNTRY            .         UNKNOWN                       : COUNTRY
ELEV               .M        -999.250000                   : SURFACE ELEV
ELEV_TYPE___________________________________________23 .000000KB                               : ELEV TYPE
LAT                .         61.351486                     : LATITUDE
LON                .         3.534064                      : LONGITUDE
STAT               .         UNKNOWN                       : STATE
XCOORD             .         528566.790000                 : SURFACE X
YCOORD             .         6802217.370000                : SURFACE Y
~Parameter Information Block
#_______________________________________________________________________________
#
#PARAMETER_NAME    .UNIT     VALUE                         : DESCRIPTION
#_______________________________________________________________________________
SET                .         Dataset                       : 
TLFamily_DT        .         Compressional Slowness        : 
TLFamily_GR        .         Gamma Ray                     : 
TLFamily_MD        .         Measured Depth                : 
TLFamily_NPHI      .         Neutron Porosity              : 
TLFamily_RHOB      .         Bulk Density                  : 
~Curve Information
#_______________________________________________________________________________
#
#LOGNAME           .UNIT     LOG_ID                        : DESCRIPTION
#_______________________________________________________________________________
MD                 .m                                      :  {F}
DT                 .us/ft                                  :  {F}
GR                 .gAPI                                   :  {F}
NPHI               .                                       :  {F}
RHOB               .g/cm3                                  :  {F}
~Ascii
# ...
1655.137932137031 132.2932   43.76571   -9999      -9999     
1655.289932128875 136.7428   42.18661   -9999      -9999     
1655.441932120718 143.8092   42.89888   -9999      -9999     
1655.593932112561 144.6842   43.26384   -9999      -9999     
1655.745932104405 143.2893   42.79751   -9999      -9999     
1655.897932096248 140.7365   41.40942   -9999      -9999     
1656.049932088092 136.7563   42.68573   -9999      -9999     
1656.201932079935 138.3357   42.96647   -9999      -9999     
1656.353932071778 138.993    45.649     -9999      -9999     
1656.505932063622 140.1985   45.64251   -9999      -9999     
1656.657932055465 138.7044   45.4172    -9999      -9999     
1656.809932047308 136.4874   43.71236   -9999      -9999     
1656.961932039152 135.7305   42.83379   -9999      -9999     
1657.113932030995 136.0836   40.87737   -9999      -9999     
1657.265932022839 130.4713   41.35828   -9999      -9999     
1657.417932014682 131.5569   41.01675   -9999      -9999     
1657.569932006526 135.6645   39.48988   -9999      -9999     
1657.721931998369 134.9263   40.82211   -9999      -9999     
1657.873931990212 140.4802   41.34327   -9999      -9999     
1658.025931982056 143.5329   42.76057   -9999      -9999     
1658.177931973899 138.1347   40.5284    -9999      -9999     
1658.329931965742 138.2831   40.33849   -9999      -9999     
1658.481931957586 136.6189   40.66665   -9999      -9999     
1658.633931949429 137.8322   42.14064   -9999      -9999     
1658.785931941273 135.7206   39.18083   -9999      -9999     
1658.937931933116 135.9339   38.61206   -9999      -9999     
1659.089931924959 135.1996   40.57832   -9999      -9999     
1659.241931916803 136.0921   43.23491   -9999      -9999     
1659.393931908646 140.5045   43.12775   -9999      -9999     
1659.545931900489 142.8064   42.50268   -9999      -9999     
1659.697931892333 145.2254   40.83415   -9999      -9999     
1659.849931884176 143.3013   44.14841   -9999      -9999     
1660.00193187602 140.4677   39.81324   -9999      -9999     
1660.153931867863 137.37     42.36666   -9999      -9999     
1660.305931859707 137.4528   41.20472   -9999      -9999     
1660.45793185155 140.3007   42.43235   -9999      -9999     
1660.609931843393 139.9651   42.51197   -9999      -9999     
1660.761931835237 139.8412   39.34052   -9999      -9999     
1660.91393182708 140.864    40.16773   -9999      -9999     
1661.065931818923 138.8477   41.43143   -9999      -9999     
1661.217931810767 141.909    44.57229   -9999      -9999     
1661.36993180261 144.3792   46.06423   -9999      -9999     
1661.521931794454 146.6657   46.40515   -9999      -9999     
1661.673931786297 149.2586   47.77288   -9999      -9999     
1661.825931778141 148.1727   51.01145   -9999      -9999     
1661.977931769984 147.0067   50.26524   -9999      -9999     
1662.129931761827 147.8064   50.87373   -9999      -9999     
1662.281931753671 148.4766   47.62636   -9999      -9999     
1662.433931745514 146.035    48.2958    -9999      -9999     
1662.585931737357 139.5345   46.0623    -9999      -9999     
1662.737931729201 134.8906   47.36521   -9999      -9999     
1662.889931721044 132.7203   45.47075   -9999      -9999     
1663.041931712888 133.3344   45.76777   -9999      -9999     
1663.193931704731 137.3146   43.82377   -9999      -9999     
1663.345931696574 138.7813   44.65023   -9999      -9999     
1663.497931688418 139.2199   42.98335   -9999      -9999     
1663.649931680261 137.2329   44.42335   -9999      -9999     
1663.801931672105 137.533    44.2118    -9999      -9999     
1663.953931663948 140.5139   49.58898   -9999      -9999     
1664.105931655791 140.7455   50.65002   -9999      -9999     
1664.257931647635 139.9971   51.5431    -9999      -9999     
1664.409931639478 138.73     46.70218   -9999      -9999     
1664.561931631322 134.5066   43.44366   -9999      -9999     
1664.713931623165 133.7503   38.34609   -9999      -9999     
1664.865931615008 133.7496   34.84807   -9999      -9999     
1665.017931606852 134.2492   33.41195   -9999      -9999     
1665.169931598695 133.2606   33.06005   -9999      -9999     
1665.321931590538 131.2844   34.47996   -9999      -9999     
1665.473931582382 128.5396   34.91241   -9999      -9999     
1665.625931574225 125.2881   33.06174   -9999      -9999     
1665.777931566069 124.5071   31.85314   -9999      -9999     
1665.929931557912 123.7798   30.28431   -9999      -9999     
1666.081931549755 120.8367   30.90862   -9999      -9999     
1666.233931541599 118.5444   29.88786   -9999      -9999     
1666.385931533442 118.0099   29.83273   -9999      -9999     
1666.537931525286 117.0315   32.37315   -9999      -9999     
1666.689931517129 116.5112   34.25915   -9999      -9999     
1666.841931508972 116.2586   35.76192   -9999      -9999     
1666.993931500816 116.0007   36.59682   -9999      -9999     
1667.145931492659 116.4815   37.42063   -9999      -9999     
1667.297931484503 116.5113   34.66734   -9999      -9999     
1667.449931476346 116.013    31.60638   -9999      -9999     
1667.601931468189 116.4608   34.96848   -9999      -9999     
1667.753931460033 117.1833   38.66383   -9999      -9999     
1667.905931451876 119.3919   41.66025   -9999      -9999     
1668.05793144372 120.197    34.05343   -9999      -9999     
1668.209931435563 122.148    31.14971   -9999      -9999     
1668.361931427406 122.522    29.1554    -9999      -9999     
1668.51393141925 121.822    28.7105    -9999      -9999     
1668.665931411093 120.5696   29.64198   -9999      -9999     
1668.817931402936 120.2669   32.47152   -9999      -9999     
1668.96993139478 119.5557   37.20826   -9999      -9999     
1669.121931386623 119.0131   38.66984   -9999      -9999     
1669.273931378467 119.4529   36.27428   -9999      -9999     
1669.42593137031 119.7158   32.90012   -9999      -9999     
1669.577931362154 120.6791   31.93274   -9999      -9999     
1669.729931353997 120.8019   34.55372   -9999      -9999     
1669.88193134584 119.4058   39.36913   -9999      -9999     
1670.033931337684 118.0255   40.95238   -9999      -9999     
1670.185931329527 119.7969   37.6324    -9999      -9999     
1670.33793132137 120.6821   35.96355   -9999      -9999     
1670.489931313214 121.9168   33.0865    -9999      -9999     
1670.641931305057 121.6722   34.52695   -9999      -9999     
1670.793931296901 118.3427   33.01039   -9999      -9999     
1670.945931288744 117.2821   33.06328   -9999      -9999     
1671.097931280588 116.5684   33.08689   -9999      -9999     
1671.249931272431 116.2532   34.27626   -9999      -9999     
1671.401931264274 116.3462   37.82759   -9999      -9999     
1671.553931256118 119.8054   39.04705   -9999      -9999     
1671.705931247961 121.599    39.83205   -9999      -9999     
1671.857931239804 123.583    39.29634   -9999      -9999     
1672.009931231648 123.1591   38.81912   -9999      -9999     
1672.161931223491 122.1193   37.24361   -9999      -9999     
1672.313931215335 121.5199   33.56147   -9999      -9999     
1672.465931207178 121.9124   32.39893   -9999      -9999     
1672.617931199021 122.3752   31.97479   -9999      -9999     
1672.769931190865 124.2325   31.28311   -9999      -9999     
1672.921931182708 125.2091   30.31704   -9999      -9999     
1673.073931174551 125.0409   33.48736   -9999      -9999     
1673.225931166395 125.1922   37.70229   -9999      -9999     
1673.377931158238 125.747    40.10501   -9999      -9999     
1673.529931150082 124.5682   37.76476   -9999      -9999     
1673.681931141925 122.0982   36.35194   -9999      -9999     
1673.833931133769 121.064    36.22876   -9999      -9999     
1673.985931125612 120.4811   36.2389    -9999      -9999     
1674.137931117455 121.8615   36.36984   -9999      -9999     
1674.289931109299 124.592    38.3531    -9999      -9999     
1674.441931101142 125.9744   39.57175   -9999      -9999     
1674.593931092985 125.0266   39.77251   -9999      -9999     
1674.745931084829 123.7484   37.83818   -9999      -9999     
