~Version
 VERS              .         3.0                           : CWLS LOG ASCII STANDARD - VERSION 3.0
 WRAP              .         NO                            : ONE LINE PER DEPTH STEP
 DLM               .         SPACE                         : DELIMITING CHARACTER(SPACE TAB OR COMMA)
~Well Information
#_______________________________________________________________________________
#
#PARAMETER_NAME    .UNIT     VALUE                         : DESCRIPTION
#_______________________________________________________________________________
STRT               .m        390.498                       : First reference value
STOP               .m        3963.10580828711              : Last reference value
STEP               .m        0.152                         : Step increment
NULL               .         -9999                         : Missing value
COMP               .         GULF                          : Company
WELL               .         35/8-3                        : Well name
FLD                .                                       : Field
LOC                .         UNKNOWN                       : Location
SRVC               .         UNKNOWN                       : Service Company
CTRY               .         UN                            : Country
DATE               .                                       : Service Date
X                  .                                       : X or East-West coordinate
Y                  .                                       : Y or North South coordinate
GDAT               .                                       : Geodetic Datum
HZCS               .                                       : Horizontal Co-ordinate System
API                .         526                           : API NUMBER
CNTY               .         UNKNOWN                       : LOCATION
COUNTRY            .         UNKNOWN                       : COUNTRY
ELEV               .M        -999.250000                   : SURFACE ELEV
ELEV_TYPE___________________________________________23 .000000KB                               : ELEV TYPE
LAT                .         61.351486                     : LATITUDE
LON                .         3.534064                      : LONGITUDE
STAT               .         UNKNOWN                       : STATE
XCOORD             .         528566.790000                 : SURFACE X
YCOORD             .         6802217.370000                : SURFACE Y
~Parameter Information Block
#_______________________________________________________________________________
#
#PARAMETER_NAME    .UNIT     VALUE                         : DESCRIPTION
#_______________________________________________________________________________
SET                .         Dataset                       : 
TLFamily_DT        .         Compressional Slowness        : 
TLFamily_GR        .         Gamma Ray                     : 
TLFamily_MD        .         Measured Depth                : 
TLFamily_NPHI      .         Neutron Porosity              : 
TLFamily_RHOB      .         Bulk Density                  : 
~Curve Information
#_______________________________________________________________________________
#
#LOGNAME           .UNIT     LOG_ID                        : DESCRIPTION
#_______________________________________________________________________________
MD                 .m                                      :  {F}
DT                 .us/ft                                  :  {F}
GR                 .gAPI                                   :  {F}
NPHI               .                                       :  {F}
RHOB               .g/cm3                                  :  {F}
~Ascii
# ...
825.2179766721044 164.17     25.28742   -9999      -9999     
825.3699766639479 164.8398   25.49637   -9999      -9999     
825.5219766557911 164.5268   27.56048   -9999      -9999     
825.6739766476346 164.105    28.96248   -9999      -9999     
825.8259766394781 163.9326   30.08043   -9999      -9999     
825.9779766313213 163.2581   29.18274   -9999      -9999     
826.1299766231648 162.6098   27.78602   -9999      -9999     
826.2819766150083 162.2793   26.65437   -9999      -9999     
826.4339766068515 161.6608   27.68734   -9999      -9999     
826.585976598695 160.9514   30.07143   -9999      -9999     
826.7379765905384 160.7202   31.27201   -9999      -9999     
826.8899765823817 160.7708   31.14662   -9999      -9999     
827.0419765742251 161.5977   29.8752    -9999      -9999     
827.1939765660686 162.5869   29.45746   -9999      -9999     
827.3459765579119 161.3125   29.13765   -9999      -9999     
827.4979765497553 159.3081   26.86715   -9999      -9999     
827.6499765415988 159.3725   25.35883   -9999      -9999     
827.8019765334421 159.3158   25.43859   -9999      -9999     
827.9539765252855 159.6925   27.10674   -9999      -9999     
828.105976517129 160.3191   28.04635   -9999      -9999     
828.2579765089723 161.2017   28.80438   -9999      -9999     
828.4099765008157 160.9738   28.90808   -9999      -9999     
828.5619764926591 160.401    27.44083   -9999      -9999     
828.7139764845025 160.6309   26.57873   -9999      -9999     
828.8659764763458 160.8201   26.19296   -9999      -9999     
829.0179764681893 161.104    24.40208   -9999      -9999     
829.1699764600327 161.587    23.39316   -9999      -9999     
829.321976451876 162.8487   25.03794   -9999      -9999     
829.4739764437195 162.6058   27.70319   -9999      -9999     
829.6259764355628 162.944    26.04006   -9999      -9999     
829.7779764274062 164.9087   23.56418   -9999      -9999     
829.9299764192497 166.4712   22.9148    -9999      -9999     
830.081976411093 167.4297   24.70562   -9999      -9999     
830.2339764029364 165.7252   25.94031   -9999      -9999     
830.3859763947798 163.1851   28.04257   -9999      -9999     
830.5379763866232 163.321    30.20766   -9999      -9999     
830.6899763784666 164.0642   31.25554   -9999      -9999     
830.84197637031 165.814    33.62533   -9999      -9999     
830.9939763621534 168.9272   36.05822   -9999      -9999     
831.1459763539967 168.8797   36.25497   -9999      -9999     
831.2979763458402 166.1352   32.33611   -9999      -9999     
831.4499763376836 163.9075   30.34891   -9999      -9999     
831.6019763295269 161.7881   32.10902   -9999      -9999     
831.7539763213704 160.5382   35.09214   -9999      -9999     
831.9059763132137 162.4957   35.94677   -9999      -9999     
832.0579763050571 163.6109   36.75177   -9999      -9999     
832.2099762969005 163.5402   36.1183    -9999      -9999     
832.3619762887439 163.2281   34.8584    -9999      -9999     
832.5139762805873 162.6496   34.67743   -9999      -9999     
832.6659762724307 163.0947   34.36555   -9999      -9999     
832.8179762642741 163.8755   34.61746   -9999      -9999     
832.9699762561174 164.2174   31.63067   -9999      -9999     
833.1219762479609 164.4094   30.58706   -9999      -9999     
833.2739762398043 163.6247   32.26434   -9999      -9999     
833.4259762316476 162.9503   33.91055   -9999      -9999     
833.5779762234911 162.8889   33.8778    -9999      -9999     
833.7299762153344 162.8901   35.55554   -9999      -9999     
833.8819762071778 163.4028   39.05035   -9999      -9999     
834.0339761990213 163.3056   41.87606   -9999      -9999     
834.1859761908646 162.4558   39.53467   -9999      -9999     
834.337976182708 161.9661   36.3097    -9999      -9999     
834.4899761745514 161.9193   36.71283   -9999      -9999     
834.6419761663948 161.7469   38.04559   -9999      -9999     
834.7939761582381 161.6099   38.01751   -9999      -9999     
834.9459761500816 161.8799   36.85978   -9999      -9999     
835.0979761419251 162.7901   35.5639    -9999      -9999     
835.2499761337683 163.018    35.36113   -9999      -9999     
835.4019761256118 163.3633   34.77779   -9999      -9999     
835.5539761174552 162.4735   35.04776   -9999      -9999     
835.7059761092985 161.2601   38.92599   -9999      -9999     
835.857976101142 160.0331   38.76663   -9999      -9999     
836.0099760929854 159.5491   37.52119   -9999      -9999     
836.1619760848287 159.3087   35.56481   -9999      -9999     
836.3139760766721 160.0948   36.26809   -9999      -9999     
836.4659760685156 161.3745   39.66317   -9999      -9999     
836.6179760603588 161.9878   39.93076   -9999      -9999     
836.7699760522023 161.7352   39.23241   -9999      -9999     
836.9219760440458 161.7388   35.4204    -9999      -9999     
837.073976035889 161.8076   36.40174   -9999      -9999     
837.2259760277325 162.0612   38.62985   -9999      -9999     
837.377976019576 162.401    39.66804   -9999      -9999     
837.5299760114193 162.7788   38.45479   -9999      -9999     
837.6819760032627 162.7392   37.50235   -9999      -9999     
837.8339759951061 162.8366   41.10123   -9999      -9999     
837.9859759869495 162.8517   41.99796   -9999      -9999     
838.1379759787928 162.6447   40.51264   -9999      -9999     
838.2899759706363 163.3989   38.36874   -9999      -9999     
838.4419759624797 163.8734   38.53237   -9999      -9999     
838.593975954323 164.4738   42.86361   -9999      -9999     
838.7459759461665 165.0005   44.1231    -9999      -9999     
838.8979759380098 164.6435   42.04193   -9999      -9999     
839.0499759298532 164.0517   39.67737   -9999      -9999     
839.2019759216967 163.3792   40.77782   -9999      -9999     
839.35397591354 163.3534   44.30554   -9999      -9999     
839.5059759053834 163.7479   42.68166   -9999      -9999     
839.6579758972268 163.9146   38.68113   -9999      -9999     
839.8099758890702 164.6065   37.38791   -9999      -9999     
839.9619758809135 164.7164   38.0258    -9999      -9999     
840.113975872757 164.4222   41.02492   -9999      -9999     
840.2659758646004 164.3013   38.59639   -9999      -9999     
840.4179758564437 164.4492   37.17233   -9999      -9999     
840.5699758482872 164.2814   33.26042   -9999      -9999     
840.7219758401305 164.548    30.36456   -9999      -9999     
840.8739758319739 164.8841   32.37028   -9999      -9999     
841.0259758238174 165.1897   34.8974    -9999      -9999     
841.1779758156607 164.6567   35.83005   -9999      -9999     
841.3299758075041 164.0326   35.56144   -9999      -9999     
841.4819757993475 163.1757   33.88047   -9999      -9999     
841.6339757911909 162.8755   33.77172   -9999      -9999     
841.7859757830342 162.0022   33.89498   -9999      -9999     
841.9379757748777 161.2806   34.41972   -9999      -9999     
842.0899757667211 161.8762   38.21389   -9999      -9999     
842.2419757585644 162.2356   38.45046   -9999      -9999     
842.3939757504079 161.9428   40.10814   -9999      -9999     
842.5459757422512 161.7223   41.08144   -9999      -9999     
842.6979757340946 161.8399   41.96756   -9999      -9999     
842.8499757259381 162.2655   41.9327    -9999      -9999     
843.0019757177814 162.2705   40.37865   -9999      -9999     
843.1539757096248 162.6523   39.32167   -9999      -9999     
843.3059757014682 163.2072   37.17054   -9999      -9999     
843.4579756933116 162.6858   33.4004    -9999      -9999     
843.609975685155 162.4961   33.58567   -9999      -9999     
843.7619756769984 162.4812   35.23354   -9999      -9999     
843.9139756688418 162.1365   39.33554   -9999      -9999     
844.0659756606851 161.4246   38.57392   -9999      -9999     
844.2179756525286 160.7515   37.59466   -9999      -9999     
844.3699756443719 159.8439   34.04487   -9999      -9999     
844.5219756362153 161.2605   33.77304   -9999      -9999     
844.6739756280588 162.6385   36.33289   -9999      -9999     
844.8259756199021 162.9847   36.3254    -9999      -9999     
