~Version
 VERS              .         3.0                           : CWLS LOG ASCII STANDARD - VERSION 3.0
 WRAP              .         NO                            : ONE LINE PER DEPTH STEP
 DLM               .         SPACE                         : DELIMITING CHARACTER(SPACE TAB OR COMMA)
~Well Information
#_______________________________________________________________________________
#
#PARAMETER_NAME    .UNIT     VALUE                         : DESCRIPTION
#_______________________________________________________________________________
STRT               .m        390.498                       : First reference value
STOP               .m        3963.10580828711              : Last reference value
STEP               .m        0.152                         : Step increment
NULL               .         -9999                         : Missing value
COMP               .         GULF                          : Company
WELL               .         35/8-3                        : Well name
FLD                .                                       : Field
LOC                .         UNKNOWN                       : Location
SRVC               .         UNKNOWN                       : Service Company
CTRY               .         UN                            : Country
DATE               .                                       : Service Date
X                  .                                       : X or East-West coordinate
Y                  .                                       : Y or North South coordinate
GDAT               .                                       : Geodetic Datum
HZCS               .                                       : Horizontal Co-ordinate System
API                .         526                           : API NUMBER
CNTY               .         UNKNOWN                       : LOCATION
COUNTRY            .         UNKNOWN                       : COUNTRY
ELEV               .M        -999.250000                   : SURFACE ELEV
ELEV_TYPE___________________________________________23 .000000KB                               : ELEV TYPE
LAT                .         61.351486                     : LATITUDE
LON                .         3.534064                      : LONGITUDE
STAT               .         UNKNOWN                       : STATE
XCOORD             .         528566.790000                 : SURFACE X
YCOORD             .         6802217.370000                : SURFACE Y
~Parameter Information Block
#_______________________________________________________________________________
#
#PARAMETER_NAME    .UNIT     VALUE                         : DESCRIPTION
#_______________________________________________________________________________
SET                .         Dataset                       : 
TLFamily_DT        .         Compressional Slowness        : 
TLFamily_GR        .         Gamma Ray                     : 
TLFamily_MD        .         Measured Depth                : 
TLFamily_NPHI      .         Neutron Porosity              : 
TLFamily_RHOB      .         Bulk Density                  : 
~Curve Information
#_______________________________________________________________________________
#
#LOGNAME           .UNIT     LOG_ID                        : DESCRIPTION
#_______________________________________________________________________________
MD                 .m                                      :  {F}
DT                 .us/ft                                  :  {F}
GR                 .gAPI                                   :  {F}
NPHI               .                                       :  {F}
RHOB               .g/cm3                                  :  {F}
~Ascii
# ...
1457.53794274062 139.6562   46.07808   -9999      -9999     
1457.689942732463 138.5398   39.83585   -9999      -9999     
1457.841942724307 137.9637   36.82683   -9999      -9999     
1457.99394271615 139.923    37.86791   -9999      -9999     
1458.145942707994 139.8271   43.21329   -9999      -9999     
1458.297942699837 138.3122   44.93535   -9999      -9999     
1458.44994269168 136.7486   45.38303   -9999      -9999     
1458.601942683524 135.3017   45.10241   -9999      -9999     
1458.753942675367 135.1084   41.23786   -9999      -9999     
1458.905942667211 136.5515   38.17426   -9999      -9999     
1459.057942659054 136.9211   33.79105   -9999      -9999     
1459.209942650897 136.5454   32.49169   -9999      -9999     
1459.361942642741 137.0814   36.7136    -9999      -9999     
1459.513942634584 138.2826   44.10611   -9999      -9999     
1459.665942626428 139.8482   49.44319   -9999      -9999     
1459.817942618271 139.7597   49.20309   -9999      -9999     
1459.969942610114 137.918    43.55483   -9999      -9999     
1460.121942601958 137.7744   41.65312   -9999      -9999     
1460.273942593801 137.4666   42.94591   -9999      -9999     
1460.425942585644 137.0229   44.64956   -9999      -9999     
1460.577942577488 137.9205   45.41371   -9999      -9999     
1460.729942569331 137.0829   42.52449   -9999      -9999     
1460.881942561175 136.3247   40.6889    -9999      -9999     
1461.033942553018 137.3163   42.56519   -9999      -9999     
1461.185942544862 138.9752   45.56537   -9999      -9999     
1461.337942536705 139.8736   49.25231   -9999      -9999     
1461.489942528548 139.5597   48.9769    -9999      -9999     
1461.641942520392 140.0542   46.12148   -9999      -9999     
1461.793942512235 139.871    41.70757   -9999      -9999     
1461.945942504078 140.8726   34.89578   -9999      -9999     
1462.097942495922 143.1712   34.52174   -9999      -9999     
1462.249942487765 143.6863   36.42518   -9999      -9999     
1462.401942479609 143.7502   39.47255   -9999      -9999     
1462.553942471452 143.9188   41.13507   -9999      -9999     
1462.705942463296 143.6524   42.32515   -9999      -9999     
1462.857942455139 143.1258   43.41769   -9999      -9999     
1463.009942446982 143.9142   41.25941   -9999      -9999     
1463.161942438826 144.1011   41.38075   -9999      -9999     
1463.313942430669 143.4831   42.10173   -9999      -9999     
1463.465942422512 143.1313   41.19035   -9999      -9999     
1463.617942414356 142.7133   38.5524    -9999      -9999     
1463.769942406199 143.621    40.88572   -9999      -9999     
1463.921942398043 146.3303   48.69304   -9999      -9999     
1464.073942389886 149.6065   53.63323   -9999      -9999     
1464.225942381729 151.0077   51.03269   -9999      -9999     
1464.377942373573 151.1301   43.82254   -9999      -9999     
1464.529942365416 151.2959   43.0172    -9999      -9999     
1464.681942357259 151.2356   46.4519    -9999      -9999     
1464.833942349103 149.2029   49.93388   -9999      -9999     
1464.985942340946 146.6947   52.0514    -9999      -9999     
1465.13794233279 146.4221   54.20238   -9999      -9999     
1465.289942324633 146.6155   57.30333   -9999      -9999     
1465.441942316477 147.8539   53.31421   -9999      -9999     
1465.59394230832 148.4151   48.36738   -9999      -9999     
1465.745942300163 147.661    42.52142   -9999      -9999     
1465.897942292007 149.0827   38.79382   -9999      -9999     
1466.04994228385 149.5043   36.76137   -9999      -9999     
1466.201942275693 149.3851   38.00883   -9999      -9999     
1466.353942267537 151.6355   40.15438   -9999      -9999     
1466.50594225938 151.6937   38.62458   -9999      -9999     
1466.657942251224 150.5097   35.65793   -9999      -9999     
1466.809942243067 150.9945   33.07548   -9999      -9999     
1466.96194223491 152.7517   30.06025   -9999      -9999     
1467.113942226754 151.6113   29.43064   -9999      -9999     
1467.265942218597 149.3158   31.41444   -9999      -9999     
1467.417942210441 148.4949   34.44315   -9999      -9999     
1467.569942202284 148.2208   37.69516   -9999      -9999     
1467.721942194127 149.4978   37.77517   -9999      -9999     
1467.873942185971 153.5824   37.2409    -9999      -9999     
1468.025942177814 157.5935   36.48619   -9999      -9999     
1468.177942169658 156.8898   37.66076   -9999      -9999     
1468.329942161501 155.2206   42.18708   -9999      -9999     
1468.481942153344 150.3159   44.23042   -9999      -9999     
1468.633942145188 144.3886   43.41231   -9999      -9999     
1468.785942137031 139.8033   39.4856    -9999      -9999     
1468.937942128875 136.5608   35.65356   -9999      -9999     
1469.089942120718 138.797    35.49766   -9999      -9999     
1469.241942112561 145.0354   36.75542   -9999      -9999     
1469.393942104405 150.1318   39.48516   -9999      -9999     
1469.545942096248 151.2879   41.77103   -9999      -9999     
1469.697942088091 150.0651   38.80003   -9999      -9999     
1469.849942079935 151.0495   37.54148   -9999      -9999     
1470.001942071778 154.8562   34.30024   -9999      -9999     
1470.153942063622 161.3799   32.57646   -9999      -9999     
1470.305942055465 163.4323   31.36816   -9999      -9999     
1470.457942047309 162.4604   30.68576   -9999      -9999     
1470.609942039152 161.1144   32.38765   -9999      -9999     
1470.761942030995 155.578    29.56598   -9999      -9999     
1470.913942022839 147.8046   29.0416    -9999      -9999     
1471.065942014682 139.3426   28.67224   -9999      -9999     
1471.217942006525 129.9401   28.72188   -9999      -9999     
1471.369941998369 127.3417   30.48173   -9999      -9999     
1471.521941990212 126.1708   33.39699   -9999      -9999     
1471.673941982056 125.4994   36.24311   -9999      -9999     
1471.825941973899 129.1829   35.01837   -9999      -9999     
1471.977941965743 135.4362   34.66304   -9999      -9999     
1472.129941957586 144.0391   36.70692   -9999      -9999     
1472.281941949429 150.5537   39.57241   -9999      -9999     
1472.433941941273 152.7287   42.22379   -9999      -9999     
1472.585941933116 156.1889   42.63494   -9999      -9999     
1472.737941924959 158.5132   42.40599   -9999      -9999     
1472.889941916803 157.3672   41.17317   -9999      -9999     
1473.041941908646 153.3888   37.22121   -9999      -9999     
1473.19394190049 146.3877   37.18791   -9999      -9999     
1473.345941892333 141.7223   38.87725   -9999      -9999     
1473.497941884176 146.9014   38.98206   -9999      -9999     
1473.64994187602 154.6684   35.09089   -9999      -9999     
1473.801941867863 158.8961   29.79163   -9999      -9999     
1473.953941859706 158.5182   31.43197   -9999      -9999     
1474.10594185155 149.9016   35.67378   -9999      -9999     
1474.257941843393 143.0837   41.31884   -9999      -9999     
1474.409941835237 141.0287   43.25326   -9999      -9999     
1474.56194182708 145.8088   43.87586   -9999      -9999     
1474.713941818924 151.1945   42.63218   -9999      -9999     
1474.865941810767 149.7791   39.34236   -9999      -9999     
1475.01794180261 148.2893   32.48682   -9999      -9999     
1475.169941794454 148.6958   26.59006   -9999      -9999     
1475.321941786297 146.4709   24.60506   -9999      -9999     
1475.47394177814 146.3571   27.80767   -9999      -9999     
1475.625941769984 145.9909   28.68676   -9999      -9999     
1475.777941761827 145.2607   30.36186   -9999      -9999     
1475.929941753671 146.6666   31.1334    -9999      -9999     
1476.081941745514 146.566    32.00227   -9999      -9999     
1476.233941737357 149.8943   31.58846   -9999      -9999     
1476.385941729201 149.4244   30.51011   -9999      -9999     
1476.537941721044 149.4244   30.13744   -9999      -9999     
1476.689941712888 153.0475   28.60239   -9999      -9999     
1476.841941704731 150.0417   25.35555   -9999      -9999     
1476.993941696574 147.6464   25.27273   -9999      -9999     
1477.145941688418 146.1231   27.64679   -9999      -9999     
