~Version
 VERS              .         3.0                           : CWLS LOG ASCII STANDARD - VERSION 3.0
 WRAP              .         NO                            : ONE LINE PER DEPTH STEP
 DLM               .         SPACE                         : DELIMITING CHARACTER(SPACE TAB OR COMMA)
~Well Information
#_______________________________________________________________________________
#
#PARAMETER_NAME    .UNIT     VALUE                         : DESCRIPTION
#_______________________________________________________________________________
STRT               .m        390.498                       : First reference value
STOP               .m        3963.10580828711              : Last reference value
STEP               .m        0.152                         : Step increment
NULL               .         -9999                         : Missing value
COMP               .         GULF                          : Company
WELL               .         35/8-3                        : Well name
FLD                .                                       : Field
LOC                .         UNKNOWN                       : Location
SRVC               .         UNKNOWN                       : Service Company
CTRY               .         UN                            : Country
DATE               .                                       : Service Date
X                  .                                       : X or East-West coordinate
Y                  .                                       : Y or North South coordinate
GDAT               .                                       : Geodetic Datum
HZCS               .                                       : Horizontal Co-ordinate System
API                .         526                           : API NUMBER
CNTY               .         UNKNOWN                       : LOCATION
COUNTRY            .         UNKNOWN                       : COUNTRY
ELEV               .M        -999.250000                   : SURFACE ELEV
ELEV_TYPE___________________________________________23 .000000KB                               : ELEV TYPE
LAT                .         61.351486                     : LATITUDE
LON                .         3.534064                      : LONGITUDE
STAT               .         UNKNOWN                       : STATE
XCOORD             .         528566.790000                 : SURFACE X
YCOORD             .         6802217.370000                : SURFACE Y
~Parameter Information Block
#_______________________________________________________________________________
#
#PARAMETER_NAME    .UNIT     VALUE                         : DESCRIPTION
#_______________________________________________________________________________
SET                .         Dataset                       : 
TLFamily_DT        .         Compressional Slowness        : 
TLFamily_GR        .         Gamma Ray                     : 
TLFamily_MD        .         Measured Depth                : 
TLFamily_NPHI      .         Neutron Porosity              : 
TLFamily_RHOB      .         Bulk Density                  : 
~Curve Information
#_______________________________________________________________________________
#
#LOGNAME           .UNIT     LOG_ID                        : DESCRIPTION
#_______________________________________________________________________________
MD                 .m                                      :  {F}
DT                 .us/ft                                  :  {F}
GR                 .gAPI                                   :  {F}
NPHI               .                                       :  {F}
RHOB               .g/cm3                                  :  {F}
~Ascii
# ...
3117.377853670474 79.62311   70.18531   0.1968523  2.548268  
3117.529853662317 79.48015   66.74535   0.1935975  2.554487  
3117.68185365416 80.64145   65.26275   0.1889226  2.560079  
3117.833853646004 82.86172   69.95357   0.1888281  2.558989  
3117.985853637847 82.8617    77.99115   0.1925653  2.552854  
3118.13785362969 81.49142   77.61662   0.1972638  2.550185  
3118.289853621534 79.93377   74.12926   0.2013744  2.558242  
3118.441853613377 79.67878   68.57929   0.2031     2.572641  
3118.59385360522 81.2994    70.40945   0.2018196  2.580345  
3118.745853597064 83.34937   75.20544   0.1995643  2.574938  
3118.897853588907 84.03339   76.63107   0.1995849  2.5625    
3119.049853580751 85.41188   73.62562   0.2021759  2.550875  
3119.201853572594 85.82368   68.62433   0.2031106  2.543239  
3119.353853564437 83.74403   66.87963   0.198805   2.540994  
3119.505853556281 83.28854   65.8895    0.1904217  2.542828  
3119.657853548124 81.89983   67.2159    0.182793   2.544842  
3119.809853539968 80.97478   63.12185   0.1813281  2.547714  
3119.961853531811 80.79145   68.0318    0.1880201  2.556896  
3120.113853523655 79.89577   67.87174   0.1992602  2.571336  
3120.265853515498 80.2131    73.85147   0.2084517  2.579936  
3120.417853507341 78.75794   76.81379   0.2112076  2.574153  
3120.569853499185 79.51047   80.66443   0.2078438  2.560552  
3120.721853491028 79.82201   77.38081   0.199483   2.554734  
3120.873853482871 78.60137   72.59026   0.1866609  2.562202  
3121.025853474715 76.20503   70.23032   0.1745217  2.576236  
3121.177853466558 77.02315   73.93636   0.1697492  2.590745  
3121.329853458401 82.72466   73.84973   0.1724593  2.593811  
3121.481853450245 91.62388   74.5053    0.1787949  2.542917  
3121.633853442088 96.57258   80.52345   0.1899853  2.382765  
3121.785853433932 101.7886   88.40339   0.2146405  2.134978  
3121.937853425775 108.0444   92.89613   0.2580525  1.914585  
3122.089853417619 109.4376   94.73054   0.310457   1.808057  
3122.241853409462 107.1663   92.80469   0.3558103  1.804685  
3122.393853401305 110.7473   93.87057   0.3866757  1.844808  
3122.545853393149 107.4924   95.45211   0.4014532  1.871838  
3122.697853384992 106.058    99.99261   0.4009558  1.854529  
3122.849853376836 108.6532   100.2305   0.3914383  1.801277  
3123.001853368679 108.6682   96.24442   0.3831855  1.753491  
3123.153853360522 109.4566   93.57132   0.3797658  1.741387  
3123.305853352366 108.2565   95.28417   0.3752528  1.755942  
3123.457853344209 105.9509   97.10984   0.368302   1.771328  
3123.609853336052 109.3016   98.23035   0.3638643  1.775461  
3123.761853327896 108.976    100.8108   0.3647713  1.77337   
3123.913853319739 108.4931   99.98875   0.3691623  1.771754  
3124.065853311582 109.9104   97.76418   0.3749994  1.767757  
3124.217853303426 110.223    89.74416   0.3822412  1.749373  
3124.369853295269 102.3515   89.07841   0.3865447  1.719725  
3124.521853287113 103.9543   87.60845   0.3845855  1.708392  
3124.673853278956 111.5614   87.40896   0.38742    1.72599   
3124.8258532708 113.0384   85.39262   0.4093465  1.745566  
3124.977853262643 118.4202   83.64005   0.4401395  1.751742  
3125.129853254487 109.337    88.03755   0.4494247  1.764808  
3125.28185324633 102.9992   90.62521   0.4260314  1.795921  
3125.433853238173 102.2559   96.40912   0.3904057  1.808643  
3125.585853230017 106.1777   99.80025   0.3621197  1.775118  
3125.73785322186 108.9959   99.71033   0.3433624  1.729813  
3125.889853213703 111.1911   95.8162    0.3358493  1.72318   
3126.041853205547 112.1356   89.44306   0.3469802  1.775424  
3126.19385319739 116.1441   88.06593   0.375242   1.879697  
3126.345853189233 112.828    88.54885   0.4136771  1.991765  
3126.497853181077 109.1532   93.14228   0.454458   2.034059  
3126.64985317292 104.2623   95.36441   0.471884   1.991588  
3126.801853164764 95.73992   96.15256   0.4385261  1.967958  
3126.953853156607 87.9509    89.24273   0.359963   2.070822  
3127.10585314845 83.66902   77.92339   0.2784146  2.276863  
3127.257853140294 76.92877   70.51938   0.2337047  2.461265  
3127.409853132137 79.8557    69.94038   0.2253683  2.551583  
3127.561853123981 81.90197   74.97314   0.2305532  2.579154  
3127.713853115824 82.28748   76.51613   0.2342417  2.591362  
3127.865853107668 82.67548   73.99888   0.2350955  2.605179  
3128.017853099511 81.47746   73.13507   0.2342181  2.616599  
3128.169853091354 84.80048   75.76199   0.2322121  2.603848  
3128.321853083198 87.18816   80.94189   0.2423325  2.547016  
3128.473853075041 90.15768   84.35004   0.2815714  2.458521  
3128.625853066884 91.94225   87.28889   0.337485   2.373411  
3128.777853058728 90.9908    90.73813   0.3654     2.320926  
3128.929853050571 93.04646   92.07819   0.3387582  2.31225   
3129.081853042414 91.88246   92.42469   0.2890411  2.330129  
3129.233853034258 91.01656   90.04044   0.2687593  2.351745  
3129.385853026101 90.58933   94.16383   0.2867661  2.374954  
3129.537853017945 89.50194   99.46126   0.3084587  2.411836  
3129.689853009788 88.5466    99.04793   0.3043077  2.462696  
3129.841853001632 88.70095   90.91842   0.2811424  2.505117  
3129.993852993475 89.77837   86.23655   0.26559    2.530698  
3130.145852985318 91.29093   91.89474   0.2652145  2.548188  
3130.297852977162 90.77776   98.25363   0.2655317  2.56028   
3130.449852969005 89.92996   94.22624   0.2569981  2.568496  
3130.601852960849 89.14614   83.09405   0.2478392  2.575941  
3130.753852952692 88.8364    75.84734   0.250026   2.584381  
3130.905852944536 90.1227    76.72202   0.2590381  2.592103  
3131.057852936379 90.07961   79.46336   0.2610332  2.595792  
3131.209852928222 89.96484   81.25804   0.2572734  2.594379  
3131.361852920066 90.21523   79.91172   0.2600828  2.587279  
3131.513852911909 90.2328    79.30599   0.2729717  2.577469  
3131.665852903752 90.47813   82.91648   0.2875094  2.572455  
3131.817852895596 90.87067   88.77738   0.2940924  2.574907  
3131.969852887439 89.94429   92.36498   0.2906604  2.580705  
3132.121852879282 91.09724   91.29553   0.2787207  2.584242  
3132.273852871126 92.09479   86.74081   0.2666604  2.583273  
3132.425852862969 91.81298   85.57097   0.2657025  2.577662  
3132.577852854813 91.16479   87.46621   0.2726919  2.56764   
3132.729852846656 90.62347   87.56277   0.2758121  2.556675  
3132.8818528385 90.46056   87.22551   0.272587   2.550024  
3133.033852830343 89.86438   82.41949   0.2716759  2.549582  
3133.185852822186 89.15212   80.85958   0.2752206  2.554099  
3133.33785281403 88.31236   81.8229    0.2738021  2.563951  
3133.489852805873 86.23225   82.152     0.264686   2.579267  
3133.641852797717 84.51353   84.20177   0.2555021  2.594257  
3133.79385278956 85.42102   84.56849   0.2554472  2.5907    
3133.945852781403 87.48796   85.03735   0.2726409  2.543469  
3134.097852773247 90.86125   83.98453   0.3036896  2.4563    
3134.24985276509 92.89806   86.8719    0.3319847  2.375664  
3134.401852756933 93.8921    86.91299   0.3411794  2.351394  
3134.553852748777 92.83453   86.52012   0.3276274  2.393366  
3134.70585274062 91.76763   83.21753   0.3039796  2.466677  
3134.857852732463 91.25076   85.55318   0.2866307  2.523618  
3135.009852724307 92.25329   93.13564   0.2835638  2.53477   
3135.16185271615 93.28708   93.70042   0.2901858  2.503801  
3135.313852707994 94.77364   92.49928   0.2959281  2.452475  
3135.465852699837 94.74541   89.83413   0.299813   2.385439  
3135.617852691681 92.84019   91.87106   0.3110164  2.285573  
3135.769852683524 90.31989   95.4007    0.3331977  2.153966  
3135.921852675368 88.23495   93.91096   0.356649   2.045021  
3136.073852667211 86.9534    90.66781   0.3678342  2.025953  
3136.225852659054 86.88932   86.68224   0.3623996  2.111938  
3136.377852650898 88.4911    86.34891   0.347476   2.261993  
3136.529852642741 89.58685   86.74148   0.3310223  2.411405  
3136.681852634584 91.12352   89.3201    0.3143298  2.518484  
3136.833852626428 92.4256    89.17825   0.3004785  2.566942  
3136.985852618271 92.35842   88.68135   0.2967758  2.537364  
