~Version
 VERS              .         3.0                           : CWLS LOG ASCII STANDARD - VERSION 3.0
 WRAP              .         NO                            : ONE LINE PER DEPTH STEP
 DLM               .         SPACE                         : DELIMITING CHARACTER(SPACE TAB OR COMMA)
~Well Information
#_______________________________________________________________________________
#
#PARAMETER_NAME    .UNIT     VALUE                         : DESCRIPTION
#_______________________________________________________________________________
STRT               .m        390.498                       : First reference value
STOP               .m        3963.10580828711              : Last reference value
STEP               .m        0.152                         : Step increment
NULL               .         -9999                         : Missing value
COMP               .         GULF                          : Company
WELL               .         35/8-3                        : Well name
FLD                .                                       : Field
LOC                .         UNKNOWN                       : Location
SRVC               .         UNKNOWN                       : Service Company
CTRY               .         UN                            : Country
DATE               .                                       : Service Date
X                  .                                       : X or East-West coordinate
Y                  .                                       : Y or North South coordinate
GDAT               .                                       : Geodetic Datum
HZCS               .                                       : Horizontal Co-ordinate System
API                .         526                           : API NUMBER
CNTY               .         UNKNOWN                       : LOCATION
COUNTRY            .         UNKNOWN                       : COUNTRY
ELEV               .M        -999.250000                   : SURFACE ELEV
ELEV_TYPE___________________________________________23 .000000KB                               : ELEV TYPE
LAT                .         61.351486                     : LATITUDE
LON                .         3.534064                      : LONGITUDE
STAT               .         UNKNOWN                       : STATE
XCOORD             .         528566.790000                 : SURFACE X
YCOORD             .         6802217.370000                : SURFACE Y
~Parameter Information Block
#_______________________________________________________________________________
#
#PARAMETER_NAME    .UNIT     VALUE                         : DESCRIPTION
#_______________________________________________________________________________
SET                .         Dataset                       : 
TLFamily_DT        .         Compressional Slowness        : 
TLFamily_GR        .         Gamma Ray                     : 
TLFamily_MD        .         Measured Depth                : 
TLFamily_NPHI      .         Neutron Porosity              : 
TLFamily_RHOB      .         Bulk Density                  : 
~Curve Information
#_______________________________________________________________________________
#
#LOGNAME           .UNIT     LOG_ID                        : DESCRIPTION
#_______________________________________________________________________________
MD                 .m                                      :  {F}
DT                 .us/ft                                  :  {F}
GR                 .gAPI                                   :  {F}
NPHI               .                                       :  {F}
RHOB               .g/cm3                                  :  {F}
~Ascii
# ...
2900.017865334421 69.82725   58.46479   0.1265568  2.473192  
2900.169865326265 70.76269   53.50153   0.1135358  2.483751  
2900.321865318108 72.35744   53.85752   0.1188328  2.484736  
2900.473865309951 75.68993   59.59059   0.1465999  2.475946  
2900.625865301795 81.21324   68.04167   0.1861596  2.460928  
2900.777865293638 84.25391   74.02303   0.2134358  2.447619  
2900.929865285481 85.94691   71.33042   0.2189836  2.442063  
2901.081865277325 83.49586   61.77109   0.2105433  2.439181  
2901.233865269168 80.24074   52.04092   0.1949403  2.435327  
2901.385865261012 76.87507   48.00232   0.1700822  2.440001  
2901.537865252855 73.97987   47.60379   0.1420851  2.463397  
2901.689865244698 73.37354   49.18024   0.1297463  2.494588  
2901.841865236542 75.05732   54.82411   0.1432984  2.510576  
2901.993865228385 79.36912   62.73989   0.1741402  2.501069  
2902.145865220229 83.86227   74.28886   0.202094   2.477631  
2902.297865212072 85.28777   78.00285   0.2159015  2.463182  
2902.449865203916 86.55081   74.21267   0.2196433  2.463512  
2902.601865195759 87.77782   64.72507   0.2215776  2.463046  
2902.753865187602 89.25726   61.61361   0.2224105  2.449212  
2902.905865179446 90.23508   60.88167   0.2189911  2.429531  
2903.057865171289 90.05664   61.52325   0.2176776  2.42188   
2903.209865163132 89.76207   67.67169   0.2233865  2.432854  
2903.361865154976 89.16814   75.15459   0.2281925  2.453389  
2903.513865146819 88.86187   78.05363   0.221509   2.465827  
2903.665865138662 89.61842   72.99046   0.2065642  2.46016   
2903.817865130506 89.80056   66.35602   0.195697   2.445361  
2903.969865122349 88.39212   61.86303   0.1932881  2.43647   
2904.121865114193 85.08337   59.00225   0.1940015  2.442537  
2904.273865106036 79.94838   58.52791   0.1908463  2.465173  
2904.42586509788 74.46056   58.45132   0.1827747  2.498528  
2904.577865089723 71.8411    56.40747   0.1744985  2.530594  
2904.729865081566 71.82381   54.33008   0.1766671  2.548688  
2904.88186507341 75.83337   56.44221   0.1927417  2.546005  
2905.033865065253 81.67625   61.46205   0.2092134  2.524124  
2905.185865057097 86.40881   66.7064    0.2130314  2.492893  
2905.33786504894 89.68704   67.95122   0.2062209  2.466352  
2905.489865040783 89.34798   66.10342   0.1986418  2.45403   
2905.641865032627 89.86728   63.84832   0.1957508  2.454807  
2905.79386502447 91.72277   63.02499   0.2011671  2.462133  
2905.945865016313 93.14437   64.99894   0.2173402  2.471625  
2906.097865008157 93.5752    72.52527   0.2372626  2.482315  
2906.249865 92.23141   80.59005   0.2486194  2.495833  
2906.401864991843 90.78834   82.49715   0.246809   2.510942  
2906.553864983687 90.18544   77.91445   0.2398941  2.521994  
2906.70586497553 90.85225   74.03839   0.2402     2.524372  
2906.857864967374 92.66548   76.16991   0.2510865  2.520043  
2907.009864959217 93.47282   82.79688   0.2616567  2.516016  
2907.161864951061 93.67326   85.64445   0.2623836  2.512979  
2907.313864942904 93.47874   84.03258   0.2584254  2.509424  
2907.465864934748 93.97659   80.46582   0.2577343  2.508933  
2907.617864926591 95.00736   83.17707   0.2600806  2.513449  
2907.769864918434 95.03049   89.72679   0.2569672  2.519116  
2907.921864910278 94.82435   93.35016   0.2459971  2.521745  
2908.073864902121 93.88731   88.43954   0.2360508  2.520524  
2908.225864893964 93.59517   81.32874   0.2328463  2.517373  
2908.377864885808 93.27567   81.13995   0.2345776  2.516539  
2908.529864877651 91.88362   84.00674   0.2367895  2.518925  
2908.681864869494 91.4922    86.91973   0.2375492  2.521979  
2908.833864861338 91.28715   82.35006   0.2358269  2.522366  
2908.985864853181 91.32729   79.3163    0.2271045  2.516966  
2909.137864845025 91.25881   81.37083   0.2134493  2.50787   
2909.289864836868 91.02496   86.82704   0.2092612  2.501425  
2909.441864828711 91.29814   91.24418   0.2206671  2.501523  
2909.593864820555 91.58843   89.81313   0.2369895  2.505321  
2909.745864812398 91.51292   85.98818   0.2466179  2.506266  
2909.897864804242 91.37453   84.60772   0.2504746  2.504215  
2910.049864796085 91.30932   83.3035    0.2545642  2.504284  
2910.201864787929 91.27981   81.57719   0.2541926  2.50806   
2910.353864779772 91.53964   86.20103   0.2445523  2.513509  
2910.505864771615 91.84543   91.20124   0.2336597  2.517039  
2910.657864763459 92.22092   92.56319   0.2305358  2.515633  
2910.809864755302 92.60311   86.95461   0.2338149  2.508967  
2910.961864747146 93.4856    81.7825    0.2368895  2.500952  
2911.113864738989 94.58834   82.49623   0.2380925  2.49474   
2911.265864730832 94.28787   81.71249   0.2374179  2.490424  
2911.417864722676 93.02389   81.51575   0.2313732  2.490869  
2911.569864714519 91.86826   84.5534    0.2223613  2.498418  
2911.721864706362 90.47582   87.25897   0.2203179  2.510748  
2911.873864698206 89.58981   87.06035   0.2294939  2.520212  
2912.025864690049 89.97061   83.82825   0.2433492  2.516249  
2912.177864681893 91.75209   80.43958   0.2506433  2.496497  
2912.329864673736 92.77786   78.6841    0.2433673  2.471723  
2912.481864665579 91.57248   74.33781   0.2249091  2.456109  
2912.633864657423 89.43369   67.49329   0.2113418  2.454661  
2912.785864649266 87.89696   64.55648   0.216479   2.460551  
2912.93786464111 87.53028   67.82504   0.2346491  2.465131  
2913.089864632953 89.97234   75.02402   0.248397   2.465267  
2913.241864624797 93.51558   80.1992    0.2498821  2.460701  
2913.39386461664 95.37106   81.38743   0.2453359  2.455328  
2913.545864608483 95.40489   76.91994   0.2373837  2.457882  
2913.697864600327 93.31869   70.4766    0.2238195  2.472597  
2913.84986459217 91.69658   65.77819   0.2134836  2.492358  
2914.001864584013 90.73312   64.09939   0.2172089  2.506581  
2914.153864575857 90.66631   69.53533   0.2317238  2.513615  
2914.3058645677 91.9538    77.98703   0.2419253  2.516542  
2914.457864559543 92.71812   87.4118    0.2423194  2.514736  
2914.609864551387 92.2692    91.39697   0.244497   2.50964   
2914.76186454323 92.7019    90.47952   0.2530746  2.506654  
2914.913864535074 93.51371   92.25689   0.2586433  2.504627  
2915.065864526917 93.79703   92.86096   0.2520568  2.49226   
2915.217864518761 94.54742   90.43186   0.2357375  2.46554   
2915.369864510604 94.45662   80.33086   0.222312   2.438216  
2915.521864502447 93.94442   73.20126   0.2218925  2.42754   
2915.673864494291 93.0713    73.09753   0.2353058  2.438839  
2915.825864486134 93.42112   74.3778    0.2529805  2.462606  
2915.977864477978 95.09811   75.28799   0.2641044  2.481119  
2916.129864469821 96.56936   74.25075   0.2689731  2.478621  
2916.281864461664 97.78062   75.20278   0.2714895  2.456215  
2916.433864453508 97.40688   75.87934   0.2656493  2.436921  
2916.585864445351 94.8434    71.80695   0.2440256  2.444068  
2916.737864437194 91.59486   67.21568   0.2153032  2.475215  
2916.889864429038 89.30814   63.28582   0.1996284  2.506421  
2917.041864420881 88.64066   65.91468   0.2055805  2.520964  
2917.193864412724 89.14129   73.71238   0.2219745  2.522809  
2917.345864404568 88.88556   80.29996   0.2357701  2.520821  
2917.497864396411 88.70284   82.0239    0.2446477  2.516149  
2917.649864388255 88.7449    82.16247   0.2527805  2.510682  
2917.801864380098 89.55871   85.45363   0.262179   2.510125  
2917.953864371942 90.61895   91.3972    0.2691671  2.514854  
2918.105864363785 92.62553   97.46727   0.2712522  2.516719  
2918.257864355628 93.8889    97.92229   0.2711492  2.507175  
2918.409864347472 94.32949   95.14765   0.2742044  2.487963  
2918.561864339315 95.72968   87.62316   0.2783343  2.470103  
2918.713864331159 96.79095   82.18088   0.2787105  2.460145  
2918.865864323002 98.68706   78.3512    0.2745031  2.453898  
2919.017864314845 97.62435   76.94863   0.2638076  2.448531  
2919.169864306689 92.19527   73.47491   0.2419704  2.452212  
2919.321864298532 84.56409   68.73561   0.2061661  2.474995  
2919.473864290375 75.28629   63.57371   0.1679048  2.513725  
2919.625864282219 68.22337   58.42921   0.1401092  2.549492  
