~Version
 VERS              .         3.0                           : CWLS LOG ASCII STANDARD - VERSION 3.0
 WRAP              .         NO                            : ONE LINE PER DEPTH STEP
 DLM               .         SPACE                         : DELIMITING CHARACTER(SPACE TAB OR COMMA)
~Well Information
#_______________________________________________________________________________
#
#PARAMETER_NAME    .UNIT     VALUE                         : DESCRIPTION
#_______________________________________________________________________________
STRT               .m        390.498                       : First reference value
STOP               .m        3963.10580828711              : Last reference value
STEP               .m        0.152                         : Step increment
NULL               .         -9999                         : Missing value
COMP               .         GULF                          : Company
WELL               .         35/8-3                        : Well name
FLD                .                                       : Field
LOC                .         UNKNOWN                       : Location
SRVC               .         UNKNOWN                       : Service Company
CTRY               .         UN                            : Country
DATE               .                                       : Service Date
X                  .                                       : X or East-West coordinate
Y                  .                                       : Y or North South coordinate
GDAT               .                                       : Geodetic Datum
HZCS               .                                       : Horizontal Co-ordinate System
API                .         526                           : API NUMBER
CNTY               .         UNKNOWN                       : LOCATION
COUNTRY            .         UNKNOWN                       : COUNTRY
ELEV               .M        -999.250000                   : SURFACE ELEV
ELEV_TYPE___________________________________________23 .000000KB                               : ELEV TYPE
LAT                .         61.351486                     : LATITUDE
LON                .         3.534064                      : LONGITUDE
STAT               .         UNKNOWN                       : STATE
XCOORD             .         528566.790000                 : SURFACE X
YCOORD             .         6802217.370000                : SURFACE Y
~Parameter Information Block
#_______________________________________________________________________________
#
#PARAMETER_NAME    .UNIT     VALUE                         : DESCRIPTION
#_______________________________________________________________________________
SET                .         Dataset                       : 
TLFamily_DT        .         Compressional Slowness        : 
TLFamily_GR        .         Gamma Ray                     : 
TLFamily_MD        .         Measured Depth                : 
TLFamily_NPHI      .         Neutron Porosity              : 
TLFamily_RHOB      .         Bulk Density                  : 
~Curve Information
#_______________________________________________________________________________
#
#LOGNAME           .UNIT     LOG_ID                        : DESCRIPTION
#_______________________________________________________________________________
MD                 .m                                      :  {F}
DT                 .us/ft                                  :  {F}
GR                 .gAPI                                   :  {F}
NPHI               .                                       :  {F}
RHOB               .g/cm3                                  :  {F}
~Ascii
# ...
3314.977843066884 93.33479   94.83266   0.4069676  2.093402  
3315.129843058728 87.72141   95.08561   0.4097436  2.153833  
3315.281843050571 85.69576   95.92209   0.3908949  2.186079  
3315.433843042415 89.24247   100.3082   0.3695294  2.199519  
3315.585843034258 96.58234   101.5654   0.3592751  2.201305  
3315.737843026101 97.15778   98.78715   0.361096   2.178399  
3315.889843017945 92.13058   94.49131   0.3647985  2.097048  
3316.041843009788 95.46145   93.01725   0.3576127  1.973485  
3316.193843001632 91.54747   91.92181   0.3448314  1.875795  
3316.345842993475 82.91683   93.2524    0.3461457  1.850087  
3316.497842985319 89.49443   98.78973   0.3634894  1.888768  
3316.649842977162 88.98769   104.1286   0.3748401  1.958026  
3316.801842969005 82.65508   102.9109   0.3698868  2.02673   
3316.953842960849 85.38807   95.20969   0.3618843  2.065387  
3317.105842952692 83.66865   92.75502   0.3623574  2.038482  
3317.257842944535 79.72028   98.28342   0.3683513  1.95839   
3317.409842936379 82.87442   105.5809   0.3729295  1.89881   
3317.561842928222 87.9396    108.5342   0.3697208  1.890364  
3317.713842920065 87.90621   107.021    0.3559893  1.881279  
3317.865842911909 96.28535   104.5572   0.3421208  1.820947  
3318.017842903752 103.1094   105.3218   0.3423731  1.75057   
3318.169842895596 98.86659   108.177    0.3579386  1.764356  
3318.321842887439 99.68959   107.5089   0.3769721  1.883767  
3318.473842879283 103.498    103.9645   0.3874696  2.035082  
3318.625842871126 106.3511   99.12452   0.3895492  2.135056  
3318.777842862969 104.729    101.0071   0.391668   2.172332  
3318.929842854813 103.3487   106.6638   0.3994132  2.181037  
3319.081842846656 101.766    109.9008   0.4167219  2.165602  
3319.2338428385 101.128    112.6425   0.4366259  2.129941  
3319.385842830343 102.8003   112.7517   0.4404685  2.114341  
3319.537842822186 102.9913   115.7651   0.4258061  2.139276  
3319.68984281403 105.1676   114.2133   0.4122487  2.182368  
3319.841842805873 102.4574   109.3166   0.4190939  2.224983  
3319.993842797716 98.99931   105.4656   0.4390031  2.265352  
3320.14584278956 103.9473   106.1151   0.4417096  2.299972  
3320.297842781403 99.59834   109.0959   0.4248969  2.325245  
3320.449842773246 96.26236   109.8264   0.4244553  2.324226  
3320.60184276509 105.4533   111.1308   0.4574884  2.253118  
3320.753842756933 107.2276   115.1532   0.4952391  2.093521  
3320.905842748777 108.9607   117.902    0.5022589  1.891998  
3321.05784274062 109.0812   114.4328   0.4812132  1.713613  
3321.209842732464 105.0208   113.502    0.460599   1.596364  
3321.361842724307 103.9366   111.879    0.4578899  1.563327  
3321.513842716151 106.3447   108.3664   0.4748005  1.634821  
3321.665842707994 103.402    104.0534   0.4978985  1.80099   
3321.817842699837 101.1737   106.308    0.5022883  1.990577  
3321.969842691681 106.7586   109.8495   0.4786741  2.106472  
3322.121842683524 110.3391   112.2361   0.444102   2.115797  
3322.273842675367 107.1519   107.8636   0.4178462  2.07143   
3322.425842667211 98.14819   108.345    0.4044071  2.023303  
3322.577842659054 91.5071    105.075    0.4033081  1.961246  
3322.729842650897 94.75567   101.792    0.4144213  1.86586   
3322.881842642741 96.63599   99.09371   0.4302381  1.747001  
3323.033842634584 104.1544   101.0744   0.4417868  1.632392  
3323.185842626428 101.5251   103.8067   0.4506777  1.545231  
3323.337842618271 102.4466   104.9324   0.4586513  1.48912   
3323.489842610114 111.8151   102.9302   0.4604721  1.454506  
3323.641842601958 108.9526   102.2021   0.4501863  1.43366   
3323.793842593801 111.5466   103.4261   0.4271162  1.43472   
3323.945842585645 112.4113   105.8418   0.393497   1.469792  
3324.097842577488 111.0631   109.6627   0.3514442  1.526494  
3324.249842569332 96.20281   109.9724   0.3128914  1.583932  
3324.401842561175 92.42963   110.631    0.2919746  1.650354  
3324.553842553018 100.5081   109.3277   0.2919731  1.756818  
3324.705842544862 104.3962   110.9248   0.3042396  1.911472  
3324.857842536705 99.6358    109.9778   0.3110091  2.059677  
3325.009842528548 95.69239   112.5718   0.3015371  2.139123  
3325.161842520392 95.62152   118.597    0.2840787  2.158979  
3325.313842512235 91.59702   128.0117   0.2799315  2.16557   
3325.465842504078 104.4669   127.0172   0.2997639  2.164302  
3325.617842495922 108.5318   120.359    0.3289914  2.105406  
3325.769842487765 108.8781   114.0589   0.3490548  1.971934  
3325.921842479609 107.5263   112.0391   0.3572711  1.828694  
3326.073842471452 104.667    113.4679   0.3628929  1.731629  
3326.225842463296 104.3454   112.9692   0.3757106  1.671288  
3326.377842455139 98.04489   111.2325   0.3970634  1.621125  
3326.529842446982 94.28233   109.6658   0.4206771  1.575075  
3326.681842438826 98.7781    107.2545   0.4382071  1.532769  
3326.833842430669 97.2157    111.5249   0.4400178  1.489244  
3326.985842422513 109.5372   114.5723   0.423535   1.446654  
3327.137842414356 108.1862   113.76     0.4011554  1.413401  
3327.289842406199 101.0347   108.783    0.3896675  1.396012  
3327.441842398043 93.53155   103.6706   0.401302   1.398695  
3327.593842389886 109.5716   105.3103   0.4341461  1.422096  
3327.745842381729 115.5358   111.8315   0.464937   1.460025  
3327.897842373573 117.3743   118.3354   0.4752584  1.501642  
3328.049842365416 111.195    120.9402   0.4722873  1.539039  
3328.201842357259 108.7848   121.4748   0.471671   1.564426  
3328.353842349103 112.1566   119.0995   0.4712366  1.563443  
3328.505842340946 117.678    120.9935   0.4496955  1.539079  
3328.65784233279 102.1386   123.3704   0.4046423  1.536307  
3328.809842324633 100.7675   125.0437   0.3642209  1.60676   
3328.961842316477 108.8808   122.4332   0.3529467  1.733261  
3329.11384230832 111.1777   117.0424   0.370139   1.8154    
3329.265842300164 106.5368   113.8503   0.3939984  1.780742  
3329.417842292007 103.6675   111.8981   0.4010965  1.667979  
3329.56984228385 97.23134   110.127    0.3860351  1.559173  
3329.721842275694 84.93287   109.4357   0.366265   1.495048  
3329.873842267537 88.52364   107.0343   0.3598309  1.466485  
3330.025842259381 110.6454   110.575    0.3635127  1.45169   
3330.177842251224 115.9505   114.2981   0.3660985  1.443928  
3330.329842243067 109.8333   119.4527   0.3731426  1.452243  
3330.481842234911 112.8041   118.1855   0.3958101  1.492489  
3330.633842226754 119.6871   117.8879   0.419038   1.567761  
3330.785842218597 102.0087   119.0374   0.4166031  1.652303  
3330.937842210441 106.4797   121.6906   0.3908899  1.700372  
3331.089842202284 107.9352   121.7926   0.3659879  1.688072  
3331.241842194127 107.7484   115.9558   0.3567015  1.639519  
3331.393842185971 105.8101   114.6884   0.3591111  1.59934   
3331.545842177814 107.5564   113.6061   0.3580071  1.602112  
3331.697842169658 105.3886   118.6392   0.3380006  1.653845  
3331.849842161501 108.9904   121.7601   0.2999798  1.726941  
3332.001842153345 110.1668   119.6981   0.2729777  1.784092  
3332.153842145188 99.43479   112.0973   0.2858704  1.805388  
3332.305842137032 98.07562   100.0988   0.3277405  1.793053  
3332.457842128875 108.2559   98.32477   0.3651913  1.748677  
3332.609842120718 104.5494   103.2815   0.382202   1.67421   
3332.761842112562 104.8693   112.592    0.380033   1.602873  
3332.913842104405 103.9184   112.7064   0.3669665  1.571746  
3333.065842096248 101.1926   109.7339   0.3586584  1.57062   
3333.217842088092 103.9434   109.2188   0.3664705  1.567134  
3333.369842079935 102.3233   118.4462   0.3820918  1.563125  
3333.521842071778 102.985    127.4423   0.3823574  1.592423  
3333.673842063622 101.071    127.7656   0.3622996  1.653545  
3333.825842055465 99.41743   118.6444   0.3437315  1.689514  
3333.977842047309 89.62144   113.8526   0.3359858  1.674273  
3334.129842039152 101.3802   112.5244   0.3266574  1.648813  
3334.281842030995 114.5217   113.0586   0.3173335  1.644402  
3334.433842022839 112.0427   110.5034   0.3311024  1.644006  
3334.585842014682 100.3675   109.4374   0.3705942  1.635721  
