~Version
 VERS              .         3.0                           : CWLS LOG ASCII STANDARD - VERSION 3.0
 WRAP              .         NO                            : ONE LINE PER DEPTH STEP
 DLM               .         SPACE                         : DELIMITING CHARACTER(SPACE TAB OR COMMA)
~Well Information
#_______________________________________________________________________________
#
#PARAMETER_NAME    .UNIT     VALUE                         : DESCRIPTION
#_______________________________________________________________________________
STRT               .m        390.498                       : First reference value
STOP               .m        3963.10580828711              : Last reference value
STEP               .m        0.152                         : Step increment
NULL               .         -9999                         : Missing value
COMP               .         GULF                          : Company
WELL               .         35/8-3                        : Well name
FLD                .                                       : Field
LOC                .         UNKNOWN                       : Location
SRVC               .         UNKNOWN                       : Service Company
CTRY               .         UN                            : Country
DATE               .                                       : Service Date
X                  .                                       : X or East-West coordinate
Y                  .                                       : Y or North South coordinate
GDAT               .                                       : Geodetic Datum
HZCS               .                                       : Horizontal Co-ordinate System
API                .         526                           : API NUMBER
CNTY               .         UNKNOWN                       : LOCATION
COUNTRY            .         UNKNOWN                       : COUNTRY
ELEV               .M        -999.250000                   : SURFACE ELEV
ELEV_TYPE___________________________________________23 .000000KB                               : ELEV TYPE
LAT                .         61.351486                     : LATITUDE
LON                .         3.534064                      : LONGITUDE
STAT               .         UNKNOWN                       : STATE
XCOORD             .         528566.790000                 : SURFACE X
YCOORD             .         6802217.370000                : SURFACE Y
~Parameter Information Block
#_______________________________________________________________________________
#
#PARAMETER_NAME    .UNIT     VALUE                         : DESCRIPTION
#_______________________________________________________________________________
SET                .         Dataset                       : 
TLFamily_DT        .         Compressional Slowness        : 
TLFamily_GR        .         Gamma Ray                     : 
TLFamily_MD        .         Measured Depth                : 
TLFamily_NPHI      .         Neutron Porosity              : 
TLFamily_RHOB      .         Bulk Density                  : 
~Curve Information
#_______________________________________________________________________________
#
#LOGNAME           .UNIT     LOG_ID                        : DESCRIPTION
#_______________________________________________________________________________
MD                 .m                                      :  {F}
DT                 .us/ft                                  :  {F}
GR                 .gAPI                                   :  {F}
NPHI               .                                       :  {F}
RHOB               .g/cm3                                  :  {F}
~Ascii
# ...
2070.097909869494 116.4977   65.24912   -9999      -9999     
2070.249909861338 115.0005   64.12627   -9999      -9999     
2070.401909853181 116.2356   60.55668   -9999      -9999     
2070.553909845024 118.2394   58.65939   -9999      -9999     
2070.705909836868 118.9941   60.09162   -9999      -9999     
2070.857909828711 119.492    63.49616   -9999      -9999     
2071.009909820555 120.2415   62.85175   -9999      -9999     
2071.161909812398 120.5096   57.44142   -9999      -9999     
2071.313909804242 118.7803   60.85301   -9999      -9999     
2071.465909796085 118.5054   62.56273   -9999      -9999     
2071.617909787929 117.5154   67.73599   -9999      -9999     
2071.769909779772 118.2354   70.71188   -9999      -9999     
2071.921909771615 117.5326   70.47273   -9999      -9999     
2072.073909763459 116.7697   69.43858   -9999      -9999     
2072.225909755302 116.5035   65.93644   -9999      -9999     
2072.377909747145 116.4796   69.67054   -9999      -9999     
2072.529909738989 117.9473   73.38033   -9999      -9999     
2072.681909730832 118.2482   70.75983   -9999      -9999     
2072.833909722675 118.4882   66.48111   -9999      -9999     
2072.985909714519 118.7289   65.04411   -9999      -9999     
2073.137909706362 119.4764   63.63027   -9999      -9999     
2073.289909698206 119.0173   66.32789   -9999      -9999     
2073.441909690049 119.7119   64.56829   -9999      -9999     
2073.593909681892 119.5386   67.52294   -9999      -9999     
2073.745909673736 118.5596   69.79547   -9999      -9999     
2073.897909665579 118.2631   72.4399    -9999      -9999     
2074.049909657423 117.7855   72.46741   -9999      -9999     
2074.201909649266 117.2699   72.71554   -9999      -9999     
2074.35390964111 117.4729   73.36234   -9999      -9999     
2074.505909632953 117.7186   72.49953   -9999      -9999     
2074.657909624796 118.4406   68.17005   -9999      -9999     
2074.80990961664 118.9574   62.64259   -9999      -9999     
2074.961909608483 119.7196   64.11406   -9999      -9999     
2075.113909600326 119.0666   63.45743   -9999      -9999     
2075.26590959217 118.9625   63.9546    -9999      -9999     
2075.417909584013 119.9457   62.33503   -9999      -9999     
2075.569909575856 119.0563   61.20576   -9999      -9999     
2075.7219095677 120.3395   62.2435    -9999      -9999     
2075.873909559543 121.002    63.75563   -9999      -9999     
2076.025909551387 120.2986   64.23214   -9999      -9999     
2076.17790954323 121.1504   66.40771   -9999      -9999     
2076.329909535074 121.0629   65.06621   -9999      -9999     
2076.481909526917 120.3427   66.75175   -9999      -9999     
2076.63390951876 119.6061   67.46754   -9999      -9999     
2076.785909510604 118.1507   68.17013   -9999      -9999     
2076.937909502447 117.7225   67.12362   -9999      -9999     
2077.089909494291 118.4165   62.62429   -9999      -9999     
2077.241909486134 118.4899   62.54764   -9999      -9999     
2077.393909477977 119.1493   66.32484   -9999      -9999     
2077.545909469821 119.6723   65.42114   -9999      -9999     
2077.697909461664 120.6251   64.47764   -9999      -9999     
2077.849909453507 121.2393   60.30709   -9999      -9999     
2078.001909445351 120.6124   60.10273   -9999      -9999     
2078.153909437194 120.3105   57.3185    -9999      -9999     
2078.305909429037 119.3169   57.3434    -9999      -9999     
2078.457909420881 115.2727   58.97252   -9999      -9999     
2078.609909412724 114.5827   60.84666   -9999      -9999     
2078.761909404568 116.2527   63.48904   -9999      -9999     
2078.913909396411 116.6101   64.10978   -9999      -9999     
2079.065909388255 119.9114   63.76893   -9999      -9999     
2079.217909380098 121.9737   62.62858   -9999      -9999     
2079.369909371942 120.1399   62.32084   -9999      -9999     
2079.521909363785 119.0096   64.48006   -9999      -9999     
2079.673909355628 119.8517   62.06997   -9999      -9999     
2079.825909347472 119.6156   63.09299   -9999      -9999     
2079.977909339315 119.2857   61.34348   -9999      -9999     
2080.129909331158 119.0862   62.70896   -9999      -9999     
2080.281909323002 117.9116   65.28734   -9999      -9999     
2080.433909314845 118.3651   65.9118    -9999      -9999     
2080.585909306688 118.0607   65.87093   -9999      -9999     
2080.737909298532 118.8498   63.0663    -9999      -9999     
2080.889909290375 118.372    61.40001   -9999      -9999     
2081.041909282219 118.8467   59.97869   -9999      -9999     
2081.193909274062 119.0461   59.94316   -9999      -9999     
2081.345909265905 118.6133   60.89596   -9999      -9999     
2081.497909257749 118.0393   63.49926   -9999      -9999     
2081.649909249592 118.5624   64.55465   -9999      -9999     
2081.801909241436 119.3723   65.34759   -9999      -9999     
2081.953909233279 119.9327   66.75417   -9999      -9999     
2082.105909225123 116.4048   64.575     -9999      -9999     
2082.257909216966 114.1254   61.1433    -9999      -9999     
2082.409909208809 114.2908   57.84882   -9999      -9999     
2082.561909200653 115.2557   56.45807   -9999      -9999     
2082.713909192496 119.8433   57.57564   -9999      -9999     
2082.865909184339 123.4692   58.20712   -9999      -9999     
2083.017909176183 122.3014   56.79182   -9999      -9999     
2083.169909168026 121.0854   58.89346   -9999      -9999     
2083.321909159869 121.0373   59.96997   -9999      -9999     
2083.473909151713 120.0053   62.90567   -9999      -9999     
2083.625909143556 119.8721   62.39546   -9999      -9999     
2083.7779091354 120.3722   63.32103   -9999      -9999     
2083.929909127243 120.9081   63.74817   -9999      -9999     
2084.081909119087 121.0056   63.22982   -9999      -9999     
2084.23390911093 121.193    61.80698   -9999      -9999     
2084.385909102773 121.2597   64.83727   -9999      -9999     
2084.537909094617 121.2364   64.17618   -9999      -9999     
2084.68990908646 121.4688   63.73402   -9999      -9999     
2084.841909078304 121.1578   62.30772   -9999      -9999     
2084.993909070147 120.6699   64.30904   -9999      -9999     
2085.14590906199 119.5235   61.77995   -9999      -9999     
2085.297909053834 119.4428   59.16035   -9999      -9999     
2085.449909045677 118.7301   59.99593   -9999      -9999     
2085.60190903752 118.8178   63.91887   -9999      -9999     
2085.753909029364 119.193    63.34352   -9999      -9999     
2085.905909021207 119.531    60.24259   -9999      -9999     
2086.05790901305 118.3465   61.80176   -9999      -9999     
2086.209909004894 118.7322   61.10196   -9999      -9999     
2086.361908996737 118.3528   60.48056   -9999      -9999     
2086.513908988581 117.3786   56.41884   -9999      -9999     
2086.665908980424 117.5803   60.57135   -9999      -9999     
2086.817908972268 117.772    63.13352   -9999      -9999     
2086.969908964111 117.6621   65.20122   -9999      -9999     
2087.121908955954 118.8011   63.83625   -9999      -9999     
2087.273908947798 119.6471   61.27451   -9999      -9999     
2087.425908939641 120.0549   58.08305   -9999      -9999     
2087.577908931485 121.2213   55.5955    -9999      -9999     
2087.729908923328 120.8007   55.5438    -9999      -9999     
2087.881908915171 121.0138   57.21929   -9999      -9999     
2088.033908907015 120.8879   60.502     -9999      -9999     
2088.185908898858 121.2513   62.10188   -9999      -9999     
2088.337908890701 121.5657   61.71609   -9999      -9999     
2088.489908882545 121.2118   58.04109   -9999      -9999     
2088.641908874388 120.3599   57.90557   -9999      -9999     
2088.793908866232 119.1047   59.21574   -9999      -9999     
2088.945908858075 118.4412   61.5999    -9999      -9999     
2089.097908849918 119.4649   61.52103   -9999      -9999     
2089.249908841762 118.3674   63.69236   -9999      -9999     
2089.401908833605 118.4227   64.72617   -9999      -9999     
2089.553908825449 119.7994   65.98822   -9999      -9999     
2089.705908817292 121.5659   64.68601   -9999      -9999     
