~Version
 VERS              .         3.0                           : CWLS LOG ASCII STANDARD - VERSION 3.0
 WRAP              .         NO                            : ONE LINE PER DEPTH STEP
 DLM               .         SPACE                         : DELIMITING CHARACTER(SPACE TAB OR COMMA)
~Well Information
#_______________________________________________________________________________
#
#PARAMETER_NAME    .UNIT     VALUE                         : DESCRIPTION
#_______________________________________________________________________________
STRT               .m        390.498                       : First reference value
STOP               .m        3963.10580828711              : Last reference value
STEP               .m        0.152                         : Step increment
NULL               .         -9999                         : Missing value
COMP               .         GULF                          : Company
WELL               .         35/8-3                        : Well name
FLD                .                                       : Field
LOC                .         UNKNOWN                       : Location
SRVC               .         UNKNOWN                       : Service Company
CTRY               .         UN                            : Country
DATE               .                                       : Service Date
X                  .                                       : X or East-West coordinate
Y                  .                                       : Y or North South coordinate
GDAT               .                                       : Geodetic Datum
HZCS               .                                       : Horizontal Co-ordinate System
API                .         526                           : API NUMBER
CNTY               .         UNKNOWN                       : LOCATION
COUNTRY            .         UNKNOWN                       : COUNTRY
ELEV               .M        -999.250000                   : SURFACE ELEV
ELEV_TYPE___________________________________________23 .000000KB                               : ELEV TYPE
LAT                .         61.351486                     : LATITUDE
LON                .         3.534064                      : LONGITUDE
STAT               .         UNKNOWN                       : STATE
XCOORD             .         528566.790000                 : SURFACE X
YCOORD             .         6802217.370000                : SURFACE Y
~Parameter Information Block
#_______________________________________________________________________________
#
#PARAMETER_NAME    .UNIT     VALUE                         : DESCRIPTION
#_______________________________________________________________________________
SET                .         Dataset                       : 
TLFamily_DT        .         Compressional Slowness        : 
TLFamily_GR        .         Gamma Ray                     : 
TLFamily_MD        .         Measured Depth                : 
TLFamily_NPHI      .         Neutron Porosity              : 
TLFamily_RHOB      .         Bulk Density                  : 
~Curve Information
#_______________________________________________________________________________
#
#LOGNAME           .UNIT     LOG_ID                        : DESCRIPTION
#_______________________________________________________________________________
MD                 .m                                      :  {F}
DT                 .us/ft                                  :  {F}
GR                 .gAPI                                   :  {F}
NPHI               .                                       :  {F}
RHOB               .g/cm3                                  :  {F}
~Ascii
# ...
1240.177954404568 118.6863   35.41381   -9999      -9999     
1240.329954396411 114.7486   36.0836    -9999      -9999     
1240.481954388255 106.6281   37.99313   -9999      -9999     
1240.633954380098 102.8225   41.85074   -9999      -9999     
1240.785954371941 106.2443   49.43402   -9999      -9999     
1240.937954363785 112.1297   57.04391   -9999      -9999     
1241.089954355628 118.1367   61.12397   -9999      -9999     
1241.241954347472 118.5681   61.00304   -9999      -9999     
1241.393954339315 116.5856   52.26332   -9999      -9999     
1241.545954331158 115.8937   39.43765   -9999      -9999     
1241.697954323002 116.277    28.61385   -9999      -9999     
1241.849954314845 117.1201   25.9428    -9999      -9999     
1242.001954306689 117.3704   27.62269   -9999      -9999     
1242.153954298532 117.3037   25.80665   -9999      -9999     
1242.305954290375 116.6726   23.65805   -9999      -9999     
1242.457954282219 116.9892   23.41897   -9999      -9999     
1242.609954274062 117.3268   24.761     -9999      -9999     
1242.761954265905 116.7746   26.35082   -9999      -9999     
1242.913954257749 117.0143   24.89574   -9999      -9999     
1243.065954249592 116.892    25.45503   -9999      -9999     
1243.217954241436 117.7473   27.1288    -9999      -9999     
1243.369954233279 119.0872   27.48359   -9999      -9999     
1243.521954225122 116.885    25.54808   -9999      -9999     
1243.673954216966 116.7218   24.23719   -9999      -9999     
1243.825954208809 117.5141   24.66267   -9999      -9999     
1243.977954200653 117.1022   26.74967   -9999      -9999     
1244.129954192496 116.7942   28.92035   -9999      -9999     
1244.281954184339 116.9624   30.38396   -9999      -9999     
1244.433954176183 116.6761   32.68911   -9999      -9999     
1244.585954168026 116.5359   30.61962   -9999      -9999     
1244.73795415987 116.1488   30.06147   -9999      -9999     
1244.889954151713 115.5523   26.81278   -9999      -9999     
1245.041954143556 116.7539   27.52199   -9999      -9999     
1245.1939541354 115.9772   25.92798   -9999      -9999     
1245.345954127243 115.2906   25.39906   -9999      -9999     
1245.497954119086 115.8773   24.76399   -9999      -9999     
1245.64995411093 116.3408   25.36592   -9999      -9999     
1245.801954102773 116.4584   26.14357   -9999      -9999     
1245.953954094617 116.2553   23.55438   -9999      -9999     
1246.10595408646 116.18     22.93879   -9999      -9999     
1246.257954078304 115.5438   24.72426   -9999      -9999     
1246.409954070147 114.5521   28.30322   -9999      -9999     
1246.56195406199 113.9369   29.08526   -9999      -9999     
1246.713954053834 113.6043   27.63674   -9999      -9999     
1246.865954045677 112.8117   28.15084   -9999      -9999     
1247.01795403752 112.5996   29.27446   -9999      -9999     
1247.169954029364 115.0466   32.08025   -9999      -9999     
1247.321954021207 119.2444   34.52646   -9999      -9999     
1247.473954013051 119.1142   42.58016   -9999      -9999     
1247.625954004894 118.5097   47.16511   -9999      -9999     
1247.777953996737 114.4622   46.54429   -9999      -9999     
1247.929953988581 110.076    40.43905   -9999      -9999     
1248.081953980424 109.4585   33.79601   -9999      -9999     
1248.233953972267 109.9491   31.4898    -9999      -9999     
1248.385953964111 111.1924   27.8604    -9999      -9999     
1248.537953955954 112.2326   28.09863   -9999      -9999     
1248.689953947798 113.4028   26.70102   -9999      -9999     
1248.841953939641 114.2005   27.33101   -9999      -9999     
1248.993953931485 115.0296   24.83925   -9999      -9999     
1249.145953923328 115.1016   22.77713   -9999      -9999     
1249.297953915171 115.2944   24.64203   -9999      -9999     
1249.449953907015 115.2564   28.85912   -9999      -9999     
1249.601953898858 119.2918   29.06834   -9999      -9999     
1249.753953890701 122.3655   26.51148   -9999      -9999     
1249.905953882545 125.1304   26.08393   -9999      -9999     
1250.057953874388 124.6136   27.13398   -9999      -9999     
1250.209953866232 123.2104   28.92426   -9999      -9999     
1250.361953858075 121.153    26.69258   -9999      -9999     
1250.513953849919 119.716    28.78966   -9999      -9999     
1250.665953841762 120.9012   29.37402   -9999      -9999     
1250.817953833605 123.3532   30.63941   -9999      -9999     
1250.969953825449 123.2737   32.15514   -9999      -9999     
1251.121953817292 123.1796   31.75032   -9999      -9999     
1251.273953809135 121.9002   28.42991   -9999      -9999     
1251.425953800979 119.6895   26.69853   -9999      -9999     
1251.577953792822 119.9817   27.46407   -9999      -9999     
1251.729953784666 120.1737   29.59885   -9999      -9999     
1251.881953776509 121.0952   30.15383   -9999      -9999     
1252.033953768352 120.2963   28.10292   -9999      -9999     
1252.185953760196 122.2017   27.58696   -9999      -9999     
1252.337953752039 119.6555   26.70027   -9999      -9999     
1252.489953743883 122.1463   27.91423   -9999      -9999     
1252.641953735726 122.4575   28.29948   -9999      -9999     
1252.793953727569 121.6515   27.27101   -9999      -9999     
1252.945953719413 120.5965   26.72357   -9999      -9999     
1253.097953711256 119.4546   26.80098   -9999      -9999     
1253.2499537031 119.5332   27.60885   -9999      -9999     
1253.401953694943 120.0708   27.24031   -9999      -9999     
1253.553953686786 120.8154   29.5508    -9999      -9999     
1253.70595367863 121.6399   31.46032   -9999      -9999     
1253.857953670473 122.707    30.29615   -9999      -9999     
1254.009953662317 122.0305   29.74067   -9999      -9999     
1254.16195365416 123.0309   29.64443   -9999      -9999     
1254.313953646003 125.6865   29.58692   -9999      -9999     
1254.465953637847 135.9741   33.8317    -9999      -9999     
1254.61795362969 144.9648   35.65864   -9999      -9999     
1254.769953621533 156.5427   45.73753   -9999      -9999     
1254.921953613377 160.82     49.71759   -9999      -9999     
1255.07395360522 162.8871   56.15084   -9999      -9999     
1255.225953597064 158.8914   52.42694   -9999      -9999     
1255.377953588907 153.0974   54.76838   -9999      -9999     
1255.529953580751 146.567    49.98536   -9999      -9999     
1255.681953572594 139.4575   49.48885   -9999      -9999     
1255.833953564437 131.6764   39.30131   -9999      -9999     
1255.985953556281 127.8396   33.44179   -9999      -9999     
1256.137953548124 125.9328   29.8545    -9999      -9999     
1256.289953539967 124.9436   28.35756   -9999      -9999     
1256.441953531811 123.9622   28.28582   -9999      -9999     
1256.593953523654 123.4968   27.28151   -9999      -9999     
1256.745953515498 123.4787   28.19712   -9999      -9999     
1256.897953507341 123.0008   27.17761   -9999      -9999     
1257.049953499184 123.2598   28.1419    -9999      -9999     
1257.201953491028 123.5239   25.99086   -9999      -9999     
1257.353953482871 123.6901   26.06048   -9999      -9999     
1257.505953474714 121.7784   26.02181   -9999      -9999     
1257.657953466558 122.9448   23.91984   -9999      -9999     
1257.809953458401 120.546    26.06974   -9999      -9999     
1257.961953450245 122.9537   26.24035   -9999      -9999     
1258.113953442088 120.5336   28.8445    -9999      -9999     
1258.265953433932 123.2533   26.73985   -9999      -9999     
1258.417953425775 122.5024   25.59505   -9999      -9999     
1258.569953417618 122.7406   28.37685   -9999      -9999     
1258.721953409462 121.7434   32.01469   -9999      -9999     
1258.873953401305 121.5016   32.60762   -9999      -9999     
1259.025953393148 121.7467   34.74284   -9999      -9999     
1259.177953384992 121.0005   32.65784   -9999      -9999     
1259.329953376835 120.7501   32.62421   -9999      -9999     
1259.481953368679 120.5002   22.37155   -9999      -9999     
1259.633953360522 120.7516   20.65593   -9999      -9999     
1259.785953352366 119.2545   20.17575   -9999      -9999     
