~Version
 VERS              .         3.0                           : CWLS LOG ASCII STANDARD - VERSION 3.0
 WRAP              .         NO                            : ONE LINE PER DEPTH STEP
 DLM               .         SPACE                         : DELIMITING CHARACTER(SPACE TAB OR COMMA)
~Well Information
#_______________________________________________________________________________
#
#PARAMETER_NAME    .UNIT     VALUE                         : DESCRIPTION
#_______________________________________________________________________________
STRT               .m        390.498                       : First reference value
STOP               .m        3963.10580828711              : Last reference value
STEP               .m        0.152                         : Step increment
NULL               .         -9999                         : Missing value
COMP               .         GULF                          : Company
WELL               .         35/8-3                        : Well name
FLD                .                                       : Field
LOC                .         UNKNOWN                       : Location
SRVC               .         UNKNOWN                       : Service Company
CTRY               .         UN                            : Country
DATE               .                                       : Service Date
X                  .                                       : X or East-West coordinate
Y                  .                                       : Y or North South coordinate
GDAT               .                                       : Geodetic Datum
HZCS               .                                       : Horizontal Co-ordinate System
API                .         526                           : API NUMBER
CNTY               .         UNKNOWN                       : LOCATION
COUNTRY            .         UNKNOWN                       : COUNTRY
ELEV               .M        -999.250000                   : SURFACE ELEV
ELEV_TYPE___________________________________________23 .000000KB                               : ELEV TYPE
LAT                .         61.351486                     : LATITUDE
LON                .         3.534064                      : LONGITUDE
STAT               .         UNKNOWN                       : STATE
XCOORD             .         528566.790000                 : SURFACE X
YCOORD             .         6802217.370000                : SURFACE Y
~Parameter Information Block
#_______________________________________________________________________________
#
#PARAMETER_NAME    .UNIT     VALUE                         : DESCRIPTION
#_______________________________________________________________________________
SET                .         Dataset                       : 
TLFamily_DT        .         Compressional Slowness        : 
TLFamily_GR        .         Gamma Ray                     : 
TLFamily_MD        .         Measured Depth                : 
TLFamily_NPHI      .         Neutron Porosity              : 
TLFamily_RHOB      .         Bulk Density                  : 
~Curve Information
#_______________________________________________________________________________
#
#LOGNAME           .UNIT     LOG_ID                        : DESCRIPTION
#_______________________________________________________________________________
MD                 .m                                      :  {F}
DT                 .us/ft                                  :  {F}
GR                 .gAPI                                   :  {F}
NPHI               .                                       :  {F}
RHOB               .g/cm3                                  :  {F}
~Ascii
# ...
3947.2978091354 79.63279   105.4375   0.3259349  2.592104  
3947.449809127243 79.55395   105.4375   0.3242895  2.590469  
3947.601809119087 79.56329   105.4375   0.3178531  2.586242  
3947.75380911093 79.61737   105.4375   0.3120794  2.583054  
3947.905809102774 79.69605   105.4375   0.3113799  2.587925  
3948.057809094617 79.68031   105.4375   0.3168904  2.600888  
3948.209809086461 79.70219   105.4375   0.3244512  2.612003  
3948.361809078304 79.62514   105.4375   0.3270129  2.613279  
3948.513809070147 79.50047   105.4375   0.3212211  2.610214  
3948.665809061991 79.49121   105.4375   0.3117646  2.610432  
3948.817809053834 79.56126   105.4375   0.3068058  2.611454  
3948.969809045677 79.63216   105.4375   0.3107861  2.607997  
3949.121809037521 79.55824   105.4375   0.3203268  2.598835  
3949.273809029364 79.5604    105.4375   0.327767   2.589153  
3949.425809021207 79.62426   105.4375   0.3277837  2.586139  
3949.577809013051 79.63289   105.4375   0.3207182  2.589611  
3949.729809004894 79.55855   105.4375   0.3136823  2.595209  
3949.881808996738 79.56599   105.4375   0.3125335  2.599086  
3950.033808988581 79.5652    105.4375   0.315277   2.598917  
3950.185808980425 79.50094   105.4375   0.3168015  2.595433  
3950.337808972268 79.4991    105.4375   0.3157637  2.591868  
3950.489808964111 79.5       105.4375   0.3156378  2.591536  
3950.641808955955 79.493     105.4375   0.3185698  2.595358  
3950.793808947798 79.56435   105.4375   0.3232627  2.600419  
3950.945808939642 79.5668    105.4375   0.3288077  2.601713  
3951.097808931485 -9999      -9999      0.3327364  2.599765  
3951.249808923328 -9999      -9999      0.3316794  2.5987    
3951.401808915172 -9999      -9999      0.3253124  2.598996  
3951.553808907015 -9999      -9999      0.3166617  2.599743  
3951.705808898858 -9999      -9999      0.3105258  2.601432  
3951.857808890702 -9999      -9999      0.3087493  2.604326  
3952.009808882545 -9999      -9999      0.3090464  2.604177  
3952.161808874388 -9999      -9999      0.3099407  2.597963  
3952.313808866232 -9999      -9999      0.3107971  2.590691  
3952.465808858075 -9999      -9999      0.3102608  2.586371  
3952.617808849919 -9999      -9999      0.3067895  2.585294  
3952.769808841762 -9999      -9999      0.3003038  2.588608  
3952.921808833606 -9999      -9999      0.2957608  2.596331  
3953.073808825449 -9999      -9999      0.2957885  2.604748  
3953.225808817293 -9999      -9999      0.2968957  2.608942  
3953.377808809136 -9999      -9999      0.2983335  2.609993  
3953.529808800979 -9999      -9999      0.3031469  2.612077  
3953.681808792823 -9999      -9999      0.3106947  2.615819  
3953.833808784666 -9999      -9999      0.3141564  2.618986  
3953.985808776509 -9999      -9999      0.3112852  2.618916  
3954.137808768353 -9999      -9999      0.310722   2.616322  
3954.289808760196 -9999      -9999      0.3176282  2.612434  
3954.441808752039 -9999      -9999      0.3235871  2.607733  
3954.593808743883 -9999      -9999      0.3205574  2.604759  
3954.745808735726 -9999      -9999      0.3129517  2.602227  
3954.89780872757 -9999      -9999      0.3085115  2.599758  
3955.049808719413 -9999      -9999      0.3082914  2.601812  
3955.201808711256 -9999      -9999      0.3100828  2.608344  
3955.3538087031 -9999      -9999      0.3134191  2.614468  
3955.505808694943 -9999      -9999      0.3166842  2.616601  
3955.657808686787 -9999      -9999      0.3172579  2.613445  
3955.80980867863 -9999      -9999      0.3175871  2.606998  
3955.961808670474 -9999      -9999      0.3213584  2.60222   
3956.113808662317 -9999      -9999      0.3264191  2.597252  
3956.26580865416 -9999      -9999      0.3277129  2.59015   
3956.417808646004 -9999      -9999      0.3239909  2.58591   
3956.569808637847 -9999      -9999      0.3177981  2.586284  
3956.72180862969 -9999      -9999      0.3112952  2.588681  
3956.873808621534 -9999      -9999      0.3057345  2.594386  
3957.025808613377 -9999      -9999      0.3021665  2.606933  
3957.17780860522 -9999      -9999      0.3009507  2.619833  
3957.329808597064 -9999      -9999      0.3009     2.62529   
3957.481808588907 -9999      -9999      0.3009     2.624719  
3957.633808580751 -9999      -9999      0.3009     2.621281  
3957.785808572594 -9999      -9999      0.3009     2.616636  
3957.937808564438 -9999      -9999      0.3009     2.612326  
3958.089808556281 -9999      -9999      0.3009     2.610057  
3958.241808548124 -9999      -9999      0.3009     2.606988  
3958.393808539968 -9999      -9999      0.3009     2.599125  
3958.545808531811 -9999      -9999      0.3009     2.58902   
3958.697808523655 -9999      -9999      0.3009     2.583114  
3958.849808515498 -9999      -9999      0.3009     2.583381  
3959.001808507341 -9999      -9999      0.3009     2.58677   
3959.153808499185 -9999      -9999      0.3009     2.59166   
3959.305808491028 -9999      -9999      0.3009     2.598196  
3959.457808482871 -9999      -9999      0.3009     2.605597  
3959.609808474715 -9999      -9999      0.3009     2.611863  
3959.761808466558 -9999      -9999      0.3009     2.615535  
3959.913808458401 -9999      -9999      0.3009     2.6166    
3960.065808450245 -9999      -9999      0.3009     2.616945  
3960.217808442088 -9999      -9999      0.3009     2.616364  
3960.369808433932 -9999      -9999      0.3009     2.613724  
3960.521808425775 -9999      -9999      0.3009     2.609585  
3960.673808417619 -9999      -9999      0.3009     2.604044  
3960.825808409462 -9999      -9999      0.3009     2.598387  
3960.977808401306 -9999      -9999      0.3009     2.592942  
3961.129808393149 -9999      -9999      0.3009     2.58655   
3961.281808384992 -9999      -9999      0.3009     2.581571  
3961.433808376836 -9999      -9999      0.3009     2.583402  
3961.585808368679 -9999      -9999      0.3009     2.591876  
3961.737808360522 -9999      -9999      0.3009     2.597494  
3961.889808352366 -9999      -9999      0.3009     2.59514   
3962.041808344209 -9999      -9999      0.3009     2.590427  
3962.193808336052 -9999      -9999      0.3009     2.586282  
3962.345808327896 -9999      -9999      0.3009     2.580353  
3962.497808319739 -9999      -9999      0.3009     2.57251   
3962.649808311583 -9999      -9999      0.3009     2.565195  
3962.801808303426 -9999      -9999      0.3009     2.559782  
3962.953808295269 -9999      -9999      0.3009     2.556465  
3963.105808287113 -9999      -9999      -9999      -9999     
