~Version
 VERS              .         3.0                           : CWLS LOG ASCII STANDARD - VERSION 3.0
 WRAP              .         NO                            : ONE LINE PER DEPTH STEP
 DLM               .         SPACE                         : DELIMITING CHARACTER(SPACE TAB OR COMMA)
~Well Information
#_______________________________________________________________________________
#
#PARAMETER_NAME    .UNIT     VALUE                         : DESCRIPTION
#_______________________________________________________________________________
STRT               .m        390.498                       : First reference value
STOP               .m        3963.10580828711              : Last reference value
STEP               .m        0.152                         : Step increment
NULL               .         -9999                         : Missing value
COMP               .         GULF                          : Company
WELL               .         35/8-3                        : Well name
FLD                .                                       : Field
LOC                .         UNKNOWN                       : Location
SRVC               .         UNKNOWN                       : Service Company
CTRY               .         UN                            : Country
DATE               .                                       : Service Date
X                  .                                       : X or East-West coordinate
Y                  .                                       : Y or North South coordinate
GDAT               .                                       : Geodetic Datum
HZCS               .                                       : Horizontal Co-ordinate System
API                .         526                           : API NUMBER
CNTY               .         UNKNOWN                       : LOCATION
COUNTRY            .         UNKNOWN                       : COUNTRY
ELEV               .M        -999.250000                   : SURFACE ELEV
ELEV_TYPE___________________________________________23 .000000KB                               : ELEV TYPE
LAT                .         61.351486                     : LATITUDE
LON                .         3.534064                      : LONGITUDE
STAT               .         UNKNOWN                       : STATE
XCOORD             .         528566.790000                 : SURFACE X
YCOORD             .         6802217.370000                : SURFACE Y
~Parameter Information Block
#_______________________________________________________________________________
#
#PARAMETER_NAME    .UNIT     VALUE                         : DESCRIPTION
#_______________________________________________________________________________
SET                .         Dataset                       : 
TLFamily_DT        .         Compressional Slowness        : 
TLFamily_GR        .         Gamma Ray                     : 
TLFamily_MD        .         Measured Depth                : 
TLFamily_NPHI      .         Neutron Porosity              : 
TLFamily_RHOB      .         Bulk Density                  : 
~Curve Information
#_______________________________________________________________________________
#
#LOGNAME           .UNIT     LOG_ID                        : DESCRIPTION
#_______________________________________________________________________________
MD                 .m                                      :  {F}
DT                 .us/ft                                  :  {F}
GR                 .gAPI                                   :  {F}
NPHI               .                                       :  {F}
RHOB               .g/cm3                                  :  {F}
~Ascii
# ...
1872.497920473083 116.3614   54.82006   -9999      -9999     
1872.649920464927 116.7093   56.90621   -9999      -9999     
1872.80192045677 116.7308   55.93611   -9999      -9999     
1872.953920448614 117.4797   54.11895   -9999      -9999     
1873.105920440457 116.4779   51.51257   -9999      -9999     
1873.2579204323 113.9259   51.68121   -9999      -9999     
1873.409920424144 110.551    50.98326   -9999      -9999     
1873.561920415987 108.1206   48.79355   -9999      -9999     
1873.713920407831 108.0872   48.71884   -9999      -9999     
1873.865920399674 110.9433   48.23265   -9999      -9999     
1874.017920391517 114.4281   50.88011   -9999      -9999     
1874.169920383361 116.4423   53.83685   -9999      -9999     
1874.321920375204 116.4243   55.367     -9999      -9999     
1874.473920367047 116.0432   54.51685   -9999      -9999     
1874.625920358891 114.5872   50.49001   -9999      -9999     
1874.777920350734 111.8787   49.43125   -9999      -9999     
1874.929920342578 108.9606   47.61735   -9999      -9999     
1875.081920334421 108.3524   47.17953   -9999      -9999     
1875.233920326265 108.7568   49.04362   -9999      -9999     
1875.385920318108 112.3899   52.76065   -9999      -9999     
1875.537920309951 115.2416   56.64446   -9999      -9999     
1875.689920301795 117.3876   59.03534   -9999      -9999     
1875.841920293638 117.7218   59.45278   -9999      -9999     
1875.993920285481 116.9848   60.42309   -9999      -9999     
1876.145920277325 117.5436   60.4267    -9999      -9999     
1876.297920269168 117.9428   61.5652    -9999      -9999     
1876.449920261012 117.1195   62.67442   -9999      -9999     
1876.601920252855 115.8616   59.66178   -9999      -9999     
1876.753920244698 114.2447   57.50533   -9999      -9999     
1876.905920236542 112.9771   55.38711   -9999      -9999     
1877.057920228385 113.8075   57.24073   -9999      -9999     
1877.209920220228 115.6144   58.27406   -9999      -9999     
1877.361920212072 117.3902   58.34456   -9999      -9999     
1877.513920203915 117.3527   57.18661   -9999      -9999     
1877.665920195759 117.4206   60.44469   -9999      -9999     
1877.817920187602 116.6221   61.11125   -9999      -9999     
1877.969920179446 115.3189   58.58243   -9999      -9999     
1878.121920171289 115.8694   55.57918   -9999      -9999     
1878.273920163132 117.3552   55.31324   -9999      -9999     
1878.425920154976 116.1281   57.82248   -9999      -9999     
1878.577920146819 116.7558   58.97689   -9999      -9999     
1878.729920138662 116.2696   59.94229   -9999      -9999     
1878.881920130506 115.6944   59.96499   -9999      -9999     
1879.033920122349 115.7647   61.98824   -9999      -9999     
1879.185920114193 116.3435   61.95442   -9999      -9999     
1879.337920106036 117.4741   61.40808   -9999      -9999     
1879.489920097879 117.7878   58.46804   -9999      -9999     
1879.641920089723 117.0394   59.06049   -9999      -9999     
1879.793920081566 115.4435   60.61928   -9999      -9999     
1879.94592007341 114.9461   60.27788   -9999      -9999     
1880.097920065253 115.0017   56.59744   -9999      -9999     
1880.249920057096 115.6027   54.67171   -9999      -9999     
1880.40192004894 117.2352   55.21421   -9999      -9999     
1880.553920040783 117.5747   57.58965   -9999      -9999     
1880.705920032627 116.4682   60.77932   -9999      -9999     
1880.85792002447 116.8869   62.63572   -9999      -9999     
1881.009920016313 115.9451   64.39178   -9999      -9999     
1881.161920008157 116.5898   62.116     -9999      -9999     
1881.31392 116.1422   59.61332   -9999      -9999     
1881.465919991844 116.8012   58.86629   -9999      -9999     
1881.617919983687 116.6905   60.66635   -9999      -9999     
1881.76991997553 116.4572   63.74658   -9999      -9999     
1881.921919967374 116.6559   66.2281    -9999      -9999     
1882.073919959217 117.4354   66.73503   -9999      -9999     
1882.225919951061 117.5868   65.51774   -9999      -9999     
1882.377919942904 117.0727   62.40114   -9999      -9999     
1882.529919934747 117.526    63.89032   -9999      -9999     
1882.681919926591 117.4349   63.28362   -9999      -9999     
1882.833919918434 117.8734   64.88056   -9999      -9999     
1882.985919910278 119.4206   61.58874   -9999      -9999     
1883.137919902121 119.3265   61.14793   -9999      -9999     
1883.289919893964 118.8759   60.74801   -9999      -9999     
1883.441919885808 119.4863   61.72258   -9999      -9999     
1883.593919877651 119.2462   62.16607   -9999      -9999     
1883.745919869494 119.2429   59.76546   -9999      -9999     
1883.897919861338 118.7553   62.93692   -9999      -9999     
1884.049919853181 117.5667   62.58749   -9999      -9999     
1884.201919845025 117.3538   62.93412   -9999      -9999     
1884.353919836868 118.1163   57.98581   -9999      -9999     
1884.505919828712 118.6174   59.40465   -9999      -9999     
1884.657919820555 119.0159   61.72607   -9999      -9999     
1884.809919812398 119.0295   64.40439   -9999      -9999     
1884.961919804242 119.3991   64.74722   -9999      -9999     
1885.113919796085 119.5033   64.65994   -9999      -9999     
1885.265919787928 118.1507   63.65753   -9999      -9999     
1885.417919779772 118.468    64.34793   -9999      -9999     
1885.569919771615 119.0276   63.56581   -9999      -9999     
1885.721919763459 117.7961   64.7137    -9999      -9999     
1885.873919755302 118.127    63.13594   -9999      -9999     
1886.025919747145 117.3608   61.97761   -9999      -9999     
1886.177919738989 115.2731   59.60115   -9999      -9999     
1886.329919730832 104.8624   55.60071   -9999      -9999     
1886.481919722675 92.62746   48.29156   -9999      -9999     
1886.633919714519 84.03064   38.8229    -9999      -9999     
1886.785919706362 85.79456   29.64035   -9999      -9999     
1886.937919698206 92.37322   28.39875   -9999      -9999     
1887.089919690049 104.1857   39.16481   -9999      -9999     
1887.241919681893 114.6737   52.87486   -9999      -9999     
1887.393919673736 118.1938   60.69037   -9999      -9999     
1887.545919665579 116.4322   61.0716    -9999      -9999     
1887.697919657423 116.5122   60.82743   -9999      -9999     
1887.849919649266 116.4296   61.53073   -9999      -9999     
1888.001919641109 116.0432   62.6741    -9999      -9999     
1888.153919632953 116.1805   64.24586   -9999      -9999     
1888.305919624796 114.5591   65.52972   -9999      -9999     
1888.45791961664 111.196    64.88654   -9999      -9999     
1888.609919608483 109.9076   62.4249    -9999      -9999     
1888.761919600326 109.8002   62.82598   -9999      -9999     
1888.91391959217 110.27     62.075     -9999      -9999     
1889.065919584013 110.208    63.12245   -9999      -9999     
1889.217919575857 110.232    60.17826   -9999      -9999     
1889.3699195677 111.7394   59.033     -9999      -9999     
1889.521919559543 113.6416   58.89817   -9999      -9999     
1889.673919551387 114.25     60.67296   -9999      -9999     
1889.82591954323 114.3363   61.06339   -9999      -9999     
1889.977919535074 115.7231   63.02956   -9999      -9999     
1890.129919526917 117.6042   64.17719   -9999      -9999     
1890.28191951876 117.993    66.07349   -9999      -9999     
1890.433919510604 118.1151   65.19547   -9999      -9999     
1890.585919502447 119.2681   64.20892   -9999      -9999     
1890.737919494291 119.3235   64.11984   -9999      -9999     
1890.889919486134 120.3594   64.22355   -9999      -9999     
1891.041919477977 120.8839   64.65517   -9999      -9999     
1891.193919469821 119.5633   64.60862   -9999      -9999     
1891.345919461664 120.4125   63.82991   -9999      -9999     
1891.497919453508 118.9852   64.25407   -9999      -9999     
1891.649919445351 118.903    62.49424   -9999      -9999     
1891.801919437194 117.4356   62.05903   -9999      -9999     
1891.953919429038 116.9622   58.40984   -9999      -9999     
1892.105919420881 116.7978   57.32397   -9999      -9999     
